[{"name": "London", "lat": 51.5073219, "long": -0.1276474, "population": 8416535, "name_en": "London"}, {"name": "Wells", "lat": 51.2073744, "long": -2.639455, "population": 10000, "name_en": "Wells"}, {"name": "Leeds", "lat": 53.7974185, "long": -1.5437941, "population": 766399, "name_en": "Leeds"}, {"name": "\u0391\u03b8\u03ae\u03bd\u03b1", "lat": 37.9841493, "long": 23.7279843, "population": 3090508, "name_en": "Athens"}, {"name": "Bath", "lat": 51.3813864, "long": -2.3596963, "population": 84000, "name_en": null}, {"name": "Ljubljana", "lat": 46.049865, "long": 14.5068921, "population": 272000, "name_en": "Ljubljana"}, {"name": "Chester", "lat": 53.1908873, "long": -2.8908955, "population": 119000, "name_en": "Chester"}, {"name": "Charleroi", "lat": 50.4120332, "long": 4.4436244, "population": 202730, "name_en": null}, {"name": "Limassol", "lat": 34.6735637, "long": 33.042341, "population": 101000, "name_en": "Limassol"}, {"name": "Leicester", "lat": 52.6361398, "long": -1.1330789, "population": 305700, "name_en": null}, {"name": "Lincoln", "lat": 53.2336301, "long": -0.5392172, "population": 86000, "name_en": "Lincoln"}, {"name": "Glasgow", "lat": 55.856656, "long": -4.2435817, "population": 606340, "name_en": "Glasgow"}, {"name": "Norwich", "lat": 52.628606, "long": 1.29227, "population": 195000, "name_en": "Norwich"}, {"name": "Oxford", "lat": 51.7520131, "long": -1.2578499, "population": 165000, "name_en": "Oxford"}, {"name": "K\u00f8benhavn", "lat": 55.6867243, "long": 12.5700724, "population": 559440, "name_en": "Copenhagen"}, {"name": "Helsingborg", "lat": 56.0441984, "long": 12.7040684, "population": 93838, "name_en": null}, {"name": "Erlangen", "lat": 49.598121, "long": 11.003653, "population": 105624, "name_en": "Erlangen"}, {"name": "Wien", "lat": 48.2083537, "long": 16.3725042, "population": 1840226, "name_en": "Vienna"}, {"name": "P\u00e9cs", "lat": 46.0762962, "long": 18.228147, "population": 145347, "name_en": null}, {"name": "Portsmouth", "lat": 50.8036831, "long": -1.075614, "population": 197700, "name_en": "Portsmouth"}, {"name": "Paris", "lat": 48.8566101, "long": 2.3514992, "population": 2243833, "name_en": null}, {"name": "Gloucester", "lat": 51.8653705, "long": -2.2458192, "population": 121700, "name_en": "Gloucester"}, {"name": "Coventry", "lat": 52.4081812, "long": -1.510477, "population": 337428, "name_en": null}, {"name": "Birmingham", "lat": 52.4776875, "long": -1.8948516, "population": 1036878, "name_en": "Birmingham"}, {"name": "Edinburgh", "lat": 55.9495628, "long": -3.1914972, "population": 498810, "name_en": null}, {"name": "Canterbury", "lat": 51.2800275, "long": 1.0802533, "population": 43400, "name_en": "Canterbury"}, {"name": "Peterborough", "lat": 52.5738875, "long": -0.2416701, "population": 183600, "name_en": "Peterborough"}, {"name": "Plymouth", "lat": 50.3712659, "long": -4.1425658, "population": 258700, "name_en": "Plymouth"}, {"name": "Exeter", "lat": 50.725562, "long": -3.5269108, "population": 113507, "name_en": "Exeter"}, {"name": "Hildesheim", "lat": 52.1521636, "long": 9.9513046, "population": 99390, "name_en": null}, {"name": "Bern", "lat": 46.9482713, "long": 7.4514512, "population": 128848, "name_en": null}, {"name": "Lyon", "lat": 45.7578137, "long": 4.8320114, "population": 500715, "name_en": "Lyon"}, {"name": "Chemnitz", "lat": 50.8322608, "long": 12.9252977, "population": 243089, "name_en": null}, {"name": "Hamburg", "lat": 53.550341, "long": 10.000654, "population": 1812709, "name_en": "Hamburg"}, {"name": "Newcastle upon Tyne", "lat": 54.9770924, "long": -1.6142059, "population": 289835, "name_en": null}, {"name": "York", "lat": 53.9590555, "long": -1.0815361, "population": 137000, "name_en": "York"}, {"name": "Carlisle", "lat": 54.8948478, "long": -2.9362311, "population": 72000, "name_en": "Carlisle"}, {"name": "K\u00f6ln", "lat": 50.938361, "long": 6.959974, "population": 1069200, "name_en": "Cologne"}, {"name": "Sunderland", "lat": 54.9063791, "long": -1.375053, "population": 275300, "name_en": "Sunderland"}, {"name": "Cambridge", "lat": 52.2033051, "long": 0.124862, "population": 145818, "name_en": "Cambridge"}, {"name": "Worcester", "lat": 52.1911849, "long": -2.2206585, "population": 94000, "name_en": "Worcester"}, {"name": "Link\u00f6ping", "lat": 58.4098135, "long": 15.6245252, "population": 104232, "name_en": null}, {"name": "Oslo", "lat": 59.9132694, "long": 10.7391112, "population": 616754, "name_en": null}, {"name": "Bremen", "lat": 53.0758196, "long": 8.8071646, "population": 551415, "name_en": null}, {"name": "Graz", "lat": 47.0702563, "long": 15.4385716, "population": 274000, "name_en": "Graz"}, {"name": "Chelmsford", "lat": 51.7345436, "long": 0.4724544, "population": 120000, "name_en": "Chelmsford"}, {"name": "Wakefield", "lat": 53.6825669, "long": -1.5000466, "population": 322300, "name_en": "Wakefield"}, {"name": "\u0628\u063a\u062f\u0627\u062f", "lat": 33.3024309, "long": 44.3787992, "population": 7216040, "name_en": "Baghdad"}, {"name": "Esbjerg", "lat": 55.4664892, "long": 8.4520751, "population": 71025, "name_en": null}, {"name": "Inverness", "lat": 57.4790124, "long": -4.225739, "population": 67230, "name_en": "Inverness"}, {"name": "Aberdeen", "lat": 57.1452452, "long": -2.0913745, "population": 220420, "name_en": "Aberdeen"}, {"name": "Swansea", "lat": 51.6211442, "long": -3.9467751, "population": 239000, "name_en": "Swansea"}, {"name": "Madrid", "lat": 40.4167047, "long": -3.7035825, "population": 3233527, "name_en": null}, {"name": "Stirling", "lat": 56.1181242, "long": -3.9360012, "population": 33700, "name_en": "Stirling"}, {"name": "Lichfield", "lat": 52.6843696, "long": -1.8275286, "population": 30600, "name_en": null}, {"name": "Durham", "lat": 54.7764152, "long": -1.5758539, "population": 42100, "name_en": "Durham"}, {"name": "Bergen", "lat": 60.3943532, "long": 5.325551, "population": 250420, "name_en": null}, {"name": "Perth", "lat": 56.3956402, "long": -3.4345334, "population": 45000, "name_en": "Perth"}, {"name": "Dundee", "lat": 56.4593653, "long": -2.9735213, "population": 140000, "name_en": "Dundee"}, {"name": "Hereford", "lat": 52.0553813, "long": -2.7151735, "population": 55800, "name_en": null}, {"name": "Herne", "lat": 51.5380394, "long": 7.219985, "population": 154417, "name_en": "Herne"}, {"name": "Alicante/Alacant", "lat": 38.353738, "long": -0.4901846, "population": 322673, "name_en": null}, {"name": "Bangor", "lat": 53.2277187, "long": -4.1268822, "population": 17988, "name_en": null}, {"name": "Liverpool", "lat": 53.4054719, "long": -2.9805392, "population": 434900, "name_en": null}, {"name": "Preston", "lat": 53.7589938, "long": -2.7051618, "population": 114300, "name_en": "Preston"}, {"name": "Jihlava", "lat": 49.396064, "long": 15.5903065, "population": 50521, "name_en": null}, {"name": "Pori", "lat": 61.4867236, "long": 21.7910016, "population": 83525, "name_en": null}, {"name": "C\u00f3rdoba", "lat": 37.8849779, "long": -4.7760131, "population": 328428, "name_en": null}, {"name": "M\u00e1laga", "lat": 36.7213028, "long": -4.4216366, "population": 568305, "name_en": null}, {"name": "Turku", "lat": 60.4517531, "long": 22.2670522, "population": 182255, "name_en": null}, {"name": "Derby", "lat": 52.9212617, "long": -1.4761491, "population": 233700, "name_en": "Derby"}, {"name": "Schwerin", "lat": 53.6288297, "long": 11.4148038, "population": 91583, "name_en": null}, {"name": "Kiel", "lat": 54.3216753, "long": 10.1371858, "population": null, "name_en": null}, {"name": "Nottingham", "lat": 52.9534161, "long": -1.1492773, "population": 305700, "name_en": "Nottingham"}, {"name": "Viseu", "lat": 40.6574713, "long": -7.9138664, "population": 99274, "name_en": null}, {"name": "Braga", "lat": 41.5510583, "long": -8.4280045, "population": 181494, "name_en": null}, {"name": "Linz", "lat": 48.3059078, "long": 14.286198, "population": 197283, "name_en": "Linz"}, {"name": "\u00c9vora", "lat": 38.5707742, "long": -7.9092808, "population": 56596, "name_en": null}, {"name": "Vila Real", "lat": 41.2966556, "long": -7.74678, "population": 51850, "name_en": null}, {"name": "Set\u00fabal", "lat": 38.524321, "long": -8.8926172, "population": 121185, "name_en": null}, {"name": "Portalegre", "lat": 39.2911275, "long": -7.433342, "population": 24930, "name_en": null}, {"name": "Santar\u00e9m", "lat": 39.2363637, "long": -8.6867081, "population": 62200, "name_en": null}, {"name": "Leiria", "lat": 39.7445357, "long": -8.8080365, "population": 126897, "name_en": null}, {"name": "Bragan\u00e7a", "lat": 41.8071182, "long": -6.7589839, "population": 35341, "name_en": null}, {"name": "Faro", "lat": 37.0162727, "long": -7.9351771, "population": 64560, "name_en": "Faro"}, {"name": "Nazar\u00e9", "lat": 39.6029108, "long": -9.0701572, "population": 10224, "name_en": null}, {"name": "Marinha Grande", "lat": 39.7495952, "long": -8.9298895, "population": null, "name_en": null}, {"name": "Dortmund", "lat": 51.5142273, "long": 7.4652789, "population": 600933, "name_en": null}, {"name": "L\u00fcbeck", "lat": 53.866444, "long": 10.684738, "population": 212958, "name_en": "L\u00fcbeck"}, {"name": "St Albans", "lat": 51.7492956, "long": -0.3422526, "population": 57795, "name_en": "St Albans"}, {"name": "Wolverhampton", "lat": 52.5847651, "long": -2.127567, "population": 251462, "name_en": null}, {"name": "V\u00e4xj\u00f6", "lat": 56.8787183, "long": 14.8094385, "population": 55600, "name_en": null}, {"name": "Sk\u00f6vde", "lat": 58.3898453, "long": 13.8443792, "population": 34466, "name_en": null}, {"name": "Szeksz\u00e1rd", "lat": 46.3484884, "long": 18.701663, "population": 32844, "name_en": null}, {"name": "Coimbra", "lat": 40.2109801, "long": -8.4292057, "population": 143396, "name_en": null}, {"name": "Arad", "lat": 46.1753793, "long": 21.3196342, "population": 159074, "name_en": null}, {"name": "Casablanca \u2d5c\u2d49\u2d33\u2d4e\u2d49 \u2d5c\u2d53\u2d4e\u2d4d\u2d49\u2d4d\u2d5c \u0627\u0644\u062f\u0627\u0631 \u0627\u0644\u0628\u064a\u0636\u0627\u0621", "lat": 33.5950627, "long": -7.6187768, "population": 3359818, "name_en": "Casablanca"}, {"name": "Uppsala", "lat": 59.8594126, "long": 17.64112, "population": 128400, "name_en": null}, {"name": "W\u00fcrzburg", "lat": 49.79245, "long": 9.932966, "population": 124700, "name_en": null}, {"name": "Moers", "lat": 51.451283, "long": 6.62843, "population": 105102, "name_en": null}, {"name": "Ankara", "lat": 39.9215219, "long": 32.8537929, "population": 4338620, "name_en": null}, {"name": "Edirne", "lat": 41.6759327, "long": 26.5587225, "population": 401701, "name_en": null}, {"name": "\u00c7anakkale", "lat": 40.1500808, "long": 26.4148869, "population": 519793, "name_en": null}, {"name": "K\u0131rklareli", "lat": 41.7370223, "long": 27.2235523, "population": 277984, "name_en": null}, {"name": "Bal\u0131kesir", "lat": 39.6470406, "long": 27.885554, "population": 1196170, "name_en": null}, {"name": "Ayd\u0131n", "lat": 37.8459132, "long": 27.8338384, "population": 1068260, "name_en": null}, {"name": "Mu\u011fla", "lat": 37.2148161, "long": 28.3644557, "population": 923773, "name_en": null}, {"name": "Afyonkarahisar", "lat": 38.7579642, "long": 30.5346872, "population": 714523, "name_en": null}, {"name": "Bilecik", "lat": 40.1435101, "long": 29.9752911, "population": 51260, "name_en": null}, {"name": "Burdur", "lat": 37.7248394, "long": 30.2887286, "population": 261401, "name_en": null}, {"name": "Denizli", "lat": 37.7715165, "long": 29.0863125, "population": 1005687, "name_en": null}, {"name": "D\u00fczce", "lat": 40.8422778, "long": 31.1569975, "population": 370371, "name_en": null}, {"name": "Eski\u015fehir", "lat": 39.7688564, "long": 30.5216465, "population": 844842, "name_en": null}, {"name": "Kocaeli", "lat": 40.7684074, "long": 29.9683195, "population": 1830772, "name_en": null}, {"name": "Konya", "lat": 37.8719963, "long": 32.4844015, "population": 2161303, "name_en": null}, {"name": "K\u00fctahya", "lat": 39.4195048, "long": 29.9854528, "population": 573642, "name_en": null}, {"name": "Manisa", "lat": 38.6155029, "long": 27.4255716, "population": 1396945, "name_en": null}, {"name": "U\u015fak", "lat": 38.6810732, "long": 29.4033271, "population": 358736, "name_en": null}, {"name": "Yalova", "lat": 40.6556669, "long": 29.2729091, "population": 241665, "name_en": null}, {"name": "Kaposv\u00e1r", "lat": 46.3560953, "long": 17.7877874, "population": 63186, "name_en": null}, {"name": "Stockholm", "lat": 59.3251172, "long": 18.0710935, "population": 829417, "name_en": "Stockholm"}, {"name": "G\u00f6teborg", "lat": 57.7072326, "long": 11.9670171, "population": 522259, "name_en": "Gothenburg"}, {"name": "\u062a\u0647\u0631\u0627\u0646", "lat": 35.7006177, "long": 51.401375, "population": 8000000, "name_en": "Tehran"}, {"name": "Espoo", "lat": 60.2241869, "long": 24.6603626, "population": 260842, "name_en": null}, {"name": "Karlstad", "lat": 59.3799132, "long": 13.502948, "population": 84736, "name_en": null}, {"name": "\u017dilina", "lat": 49.2234674, "long": 18.7393139, "population": 85558, "name_en": null}, {"name": "Tren\u010d\u00edn", "lat": 48.8923583, "long": 18.0393715, "population": 56759, "name_en": null}, {"name": "Pre\u0161ov", "lat": 48.997631, "long": 21.2401873, "population": 91498, "name_en": null}, {"name": "Trnava", "lat": 48.3767652, "long": 17.5858175, "population": 68038, "name_en": null}, {"name": "Bansk\u00e1 Bystrica", "lat": 48.7384028, "long": 19.1573494, "population": 80466, "name_en": null}, {"name": "\u0627\u0635\u0641\u0647\u0627\u0646", "lat": 32.6707877, "long": 51.6650002, "population": 1808968, "name_en": "Isfahan"}, {"name": "\u0645\u0634\u0647\u062f", "lat": 36.2974945, "long": 59.6059232, "population": 3312090, "name_en": "Mashhad"}, {"name": "\u062a\u0628\u0631\u06cc\u0632", "lat": 38.075775, "long": 46.2891528, "population": 1700000, "name_en": "Tabriz"}, {"name": "\u0642\u0632\u0648\u06cc\u0646", "lat": 36.2804074, "long": 50.006663, "population": 1000000, "name_en": "Qazvin"}, {"name": "\u0642\u0645", "lat": 34.6423134, "long": 50.8799831, "population": 1075000, "name_en": "Qom"}, {"name": "\u0634\u06cc\u0631\u0627\u0632", "lat": 29.6067651, "long": 52.5375663, "population": 1713000, "name_en": "Shiraz"}, {"name": "\u041a\u0438\u0457\u0432", "lat": 50.4501071, "long": 30.5240501, "population": 2909697, "name_en": "Kyiv"}, {"name": "\u0427\u0435\u0440\u043d\u0456\u0433\u0456\u0432", "lat": 51.494099, "long": 31.294332, "population": 296836, "name_en": "Chernihiv"}, {"name": "\u041e\u0434\u0435\u0441\u0430", "lat": 46.4846583, "long": 30.732564, "population": 1008852, "name_en": "Odessa"}, {"name": "\u041b\u044c\u0432\u0456\u0432", "lat": 49.841952, "long": 24.0315921, "population": 728360, "name_en": "Lviv"}, {"name": "\u0413\u043e\u043c\u0435\u043b\u044c", "lat": 52.4238936, "long": 31.0131698, "population": 535229, "name_en": "Homel"}, {"name": "\u041c\u0438\u043d\u0441\u043a", "lat": 53.902334, "long": 27.5618791, "population": 1974819, "name_en": "Minsk"}, {"name": "T\u00e2rgu Mure\u0219", "lat": 46.5446244, "long": 24.5611947, "population": 134290, "name_en": null}, {"name": "Bonn", "lat": 50.735851, "long": 7.10066, "population": 320128, "name_en": null}, {"name": "\u0627\u0631\u0648\u0645\u06cc\u0647", "lat": 37.5493473, "long": 45.0682863, "population": 667499, "name_en": "Urmia"}, {"name": "Gda\u0144sk", "lat": 54.347628, "long": 18.6452029, "population": 461935, "name_en": null}, {"name": "Gdynia", "lat": 54.5164982, "long": 18.5402738, "population": 248042, "name_en": null}, {"name": "Adana", "lat": 37.003277, "long": 35.3261219, "population": 1636229, "name_en": null}, {"name": "Van", "lat": 38.5084332, "long": 43.3742567, "population": 1100190, "name_en": null}, {"name": "I\u011fd\u0131r", "lat": 39.9215462, "long": 44.0467885, "population": 192785, "name_en": null}, {"name": "Kahramanmara\u015f", "lat": 37.5812744, "long": 36.927509, "population": 1112634, "name_en": null}, {"name": "Mersin", "lat": 36.81275, "long": 34.630542, "population": 1773852, "name_en": null}, {"name": "Osmaniye", "lat": 37.073671, "long": 36.255941, "population": 522175, "name_en": null}, {"name": "Aksaray", "lat": 38.3705416, "long": 34.026907, "population": 195990, "name_en": null}, {"name": "\u00c7ank\u0131r\u0131", "lat": 40.6003519, "long": 33.6162774, "population": 183880, "name_en": null}, {"name": "Karaman", "lat": 37.1792447, "long": 33.2224781, "population": 245610, "name_en": null}, {"name": "Kayseri", "lat": 38.7253231, "long": 35.4836107, "population": 904699, "name_en": null}, {"name": "K\u0131r\u0131kkale", "lat": 39.8485708, "long": 33.5276222, "population": 351684, "name_en": null}, {"name": "K\u0131r\u015fehir", "lat": 39.1461142, "long": 34.1605587, "population": 229975, "name_en": null}, {"name": "Nev\u015fehir", "lat": 38.6223688, "long": 34.7136022, "population": 290895, "name_en": null}, {"name": "Ni\u011fde", "lat": 37.9712079, "long": 34.6775534, "population": 351468, "name_en": null}, {"name": "Sivas", "lat": 39.7503572, "long": 37.0145185, "population": 621224, "name_en": null}, {"name": "Yozgat", "lat": 39.8205571, "long": 34.8094917, "population": 79611, "name_en": null}, {"name": "Amasya", "lat": 40.6502007, "long": 35.8338214, "population": 326351, "name_en": null}, {"name": "Artvin", "lat": 41.1831962, "long": 41.8278892, "population": 168068, "name_en": null}, {"name": "Bart\u0131n", "lat": 41.6338394, "long": 32.3384354, "population": 192389, "name_en": null}, {"name": "Bayburt", "lat": 40.25569, "long": 40.224099, "population": 90154, "name_en": null}, {"name": "\u00c7orum", "lat": 40.5491496, "long": 34.9602453, "population": 527863, "name_en": null}, {"name": "Giresun", "lat": 40.9148702, "long": 38.3879289, "population": 444467, "name_en": null}, {"name": "G\u00fcm\u00fc\u015fhane", "lat": 40.4617844, "long": 39.4757339, "population": 172034, "name_en": null}, {"name": "Karab\u00fck", "lat": 41.1974459, "long": 32.6218583, "population": 242347, "name_en": null}, {"name": "Kastamonu", "lat": 41.3765359, "long": 33.7770087, "population": 110908, "name_en": null}, {"name": "Ordu", "lat": 40.9805304, "long": 37.8839101, "population": 750588, "name_en": null}, {"name": "Rize", "lat": 41.022809, "long": 40.519612, "population": 331048, "name_en": null}, {"name": "Samsun", "lat": 41.2889924, "long": 36.3294459, "population": 1295927, "name_en": null}, {"name": "Sinop", "lat": 42.0266698, "long": 35.1506765, "population": 205478, "name_en": null}, {"name": "Tokat", "lat": 40.32648, "long": 36.55403, "population": 602662, "name_en": null}, {"name": "Zonguldak", "lat": 41.4524668, "long": 31.7884596, "population": 597524, "name_en": null}, {"name": "A\u011fr\u0131", "lat": 39.7201318, "long": 43.0500388, "population": 542255, "name_en": null}, {"name": "Ardahan", "lat": 41.1102966, "long": 42.7035585, "population": 98335, "name_en": null}, {"name": "Bing\u00f6l", "lat": 38.8851831, "long": 40.4965998, "population": 269560, "name_en": null}, {"name": "Bitlis", "lat": 38.4002185, "long": 42.1081317, "population": 341225, "name_en": null}, {"name": "Elaz\u0131\u011f", "lat": 38.676303, "long": 39.221849, "population": 578789, "name_en": null}, {"name": "Mu\u015f", "lat": 38.7403703, "long": 41.4967451, "population": 406501, "name_en": null}, {"name": "Erzincan", "lat": 39.7496052, "long": 39.4941023, "population": 226032, "name_en": null}, {"name": "Erzurum", "lat": 39.9063215, "long": 41.2727638, "population": 762021, "name_en": null}, {"name": "Kars", "lat": 40.605158, "long": 43.0961734, "population": 289786, "name_en": null}, {"name": "Malatya", "lat": 38.3483098, "long": 38.3178715, "population": 781305, "name_en": null}, {"name": "Tunceli", "lat": 39.1080631, "long": 39.548197, "population": 34461, "name_en": null}, {"name": "Ad\u0131yaman", "lat": 37.7640008, "long": 38.2764355, "population": 610484, "name_en": null}, {"name": "Batman", "lat": 37.8838505, "long": 41.1279423, "population": 576899, "name_en": null}, {"name": "Diyarbak\u0131r", "lat": 37.9166031, "long": 40.2226158, "population": 1673119, "name_en": null}, {"name": "Gaziantep", "lat": 37.0611756, "long": 37.3793085, "population": 1556381, "name_en": null}, {"name": "Kilis", "lat": 36.718045, "long": 37.11688, "population": 130825, "name_en": null}, {"name": "Mardin", "lat": 37.323983, "long": 40.7214269, "population": 796237, "name_en": null}, {"name": "\u015eanl\u0131urfa", "lat": 37.1601999, "long": 38.7916052, "population": 1940627, "name_en": null}, {"name": "Siirt", "lat": 37.931282, "long": 41.93984, "population": 322664, "name_en": null}, {"name": "\u015e\u0131rnak", "lat": 37.519248, "long": 42.4605665, "population": 483788, "name_en": null}, {"name": "Stoke-on-Trent", "lat": 53.0162014, "long": -2.1812607, "population": 249000, "name_en": "Stoke-on-Trent"}, {"name": "Szczecin", "lat": 53.4302122, "long": 14.5509784, "population": 408172, "name_en": null}, {"name": "Zielona G\u00f3ra", "lat": 51.9383336, "long": 15.5049951, "population": 119182, "name_en": null}, {"name": "Randers", "lat": 56.4617545, "long": 10.0371476, "population": 61000, "name_en": null}, {"name": "Kolding", "lat": 55.4894999, "long": 9.47905, "population": 55596, "name_en": null}, {"name": "Vejle", "lat": 55.7000057, "long": 9.5333238, "population": 50213, "name_en": null}, {"name": "Aarhus", "lat": 56.1496278, "long": 10.2134046, "population": 256018, "name_en": null}, {"name": "Odense", "lat": 55.3997225, "long": 10.3852104, "population": 170327, "name_en": null}, {"name": "Santander", "lat": 43.4623102, "long": -3.8101067, "population": 175736, "name_en": "Santander"}, {"name": "Trollh\u00e4ttan", "lat": 58.2827931, "long": 12.2908612, "population": 44498, "name_en": null}, {"name": "Uddevalla", "lat": 58.3490555, "long": 11.9382855, "population": 31212, "name_en": null}, {"name": "\u0632\u0627\u0647\u062f\u0627\u0646", "lat": 29.4928874, "long": 60.8503017, "population": 800000, "name_en": "Zahedan"}, {"name": "Metz", "lat": 49.1196964, "long": 6.1763552, "population": 120738, "name_en": null}, {"name": "Tours", "lat": 47.3900474, "long": 0.6889268, "population": 134817, "name_en": null}, {"name": "Clermont-Ferrand", "lat": 45.7774551, "long": 3.0819427, "population": 139860, "name_en": null}, {"name": "Reims", "lat": 49.2577886, "long": 4.031926, "population": 181893, "name_en": null}, {"name": "Dijon", "lat": 47.3215806, "long": 5.0414701, "population": 151672, "name_en": null}, {"name": "Orl\u00e9ans", "lat": 47.9027336, "long": 1.9086066, "population": 114167, "name_en": null}, {"name": "Amiens", "lat": 49.8941708, "long": 2.2956951, "population": 133327, "name_en": null}, {"name": "Toulouse", "lat": 43.6044622, "long": 1.4442469, "population": 441802, "name_en": null}, {"name": "Limoges", "lat": 45.8354243, "long": 1.2644847, "population": 139150, "name_en": null}, {"name": "Rennes", "lat": 48.1113387, "long": -1.6800198, "population": 207178, "name_en": "Rennes"}, {"name": "Saint-\u00c9tienne", "lat": 45.4401467, "long": 4.3873058, "population": 171260, "name_en": null}, {"name": "Nantes", "lat": 47.2186371, "long": -1.5541362, "population": 300614, "name_en": null}, {"name": "Besan\u00e7on", "lat": 47.237953, "long": 6.0243246, "population": 116914, "name_en": null}, {"name": "Le Mans", "lat": 48.0078605, "long": 0.1996565, "population": 143240, "name_en": null}, {"name": "Strasbourg", "lat": 48.584614, "long": 7.7507127, "population": 271782, "name_en": null}, {"name": "Mulhouse", "lat": 47.7494188, "long": 7.3399355, "population": 109588, "name_en": null}, {"name": "Angers", "lat": 47.4739884, "long": -0.5515588, "population": 149017, "name_en": null}, {"name": "Lille", "lat": 50.6305089, "long": 3.0706414, "population": 227560, "name_en": null}, {"name": "Toulon", "lat": 43.1257311, "long": 5.9304919, "population": 164532, "name_en": null}, {"name": "N\u00eemes", "lat": 43.8374249, "long": 4.3600687, "population": 142205, "name_en": null}, {"name": "Rouen", "lat": 49.4404591, "long": 1.0939658, "population": 110933, "name_en": null}, {"name": "Grenoble", "lat": 45.182151, "long": 5.7274722, "population": 155637, "name_en": null}, {"name": "Boulogne-Billancourt", "lat": 48.8356649, "long": 2.240206, "population": 114205, "name_en": null}, {"name": "Aix-en-Provence", "lat": 43.5298424, "long": 5.4474738, "population": 141438, "name_en": null}, {"name": "Poitiers", "lat": 46.5802596, "long": 0.340196, "population": 87435, "name_en": null}, {"name": "Calais", "lat": 50.9488, "long": 1.87468, "population": 73636, "name_en": null}, {"name": "Argenteuil", "lat": 48.9479069, "long": 2.2481797, "population": 104282, "name_en": null}, {"name": "Dunkerque", "lat": 51.0347708, "long": 2.3772525, "population": 92005, "name_en": "Dunkirk"}, {"name": "Montreuil", "lat": 48.8623357, "long": 2.4412184, "population": 104139, "name_en": null}, {"name": "Pau", "lat": 43.2957547, "long": -0.3685668, "population": 79798, "name_en": null}, {"name": "Saint-Denis", "lat": 48.935773, "long": 2.3580232, "population": 106785, "name_en": null}, {"name": "Annecy", "lat": 45.908795, "long": 6.1198672, "population": 121809, "name_en": null}, {"name": "Nancy", "lat": 48.6937223, "long": 6.1834097, "population": 105421, "name_en": null}, {"name": "Troyes", "lat": 48.2971626, "long": 4.0746257, "population": 60280, "name_en": null}, {"name": "Lancaster", "lat": 54.0484068, "long": -2.7990345, "population": 46000, "name_en": null}, {"name": "Newport", "lat": 51.5882332, "long": -2.9974967, "population": 146841, "name_en": "Newport"}, {"name": "Hull", "lat": 53.7435722, "long": -0.3394758, "population": 259000, "name_en": null}, {"name": "Bradford", "lat": 53.7941567, "long": -1.7494778, "population": 293717, "name_en": "Bradford"}, {"name": "Jelgava", "lat": 56.6514394, "long": 23.7339143, "population": 63534, "name_en": null}, {"name": "R\u012bga", "lat": 56.9493977, "long": 24.1051846, "population": 698529, "name_en": "Riga"}, {"name": "Oujda \u2d61\u2d4a\u2d37\u2d30 \u0648\u062c\u062f\u0629\u200e", "lat": 34.677874, "long": -1.929306, "population": 405000, "name_en": "Oujda"}, {"name": "Mekn\u00e8s \u2d30\u2d4e\u2d3d\u2d4f\u2d30\u2d59 \u0645\u0643\u0646\u0627\u0633", "lat": 33.8978116, "long": -5.5319836, "population": 835695, "name_en": null}, {"name": "El Jadida \u2d4a\u2d37\u2d49\u2d37\u2d30 \u0627\u0644\u062c\u062f\u064a\u062f\u0629", "lat": 33.2433309, "long": -8.49884, "population": 194934, "name_en": "El Jadida"}, {"name": "Tan-Tan \u2d5f\u2d30\u2d4f\u2d5f\u2d30\u2d4f \u0637\u0627\u0646\u0637\u0627\u0646", "lat": 28.437553, "long": -11.098664, "population": 60000, "name_en": "Tan-Tan"}, {"name": "Debrecen", "lat": 47.531399, "long": 21.6259782, "population": 203059, "name_en": null}, {"name": "Marseille", "lat": 43.2961743, "long": 5.3699525, "population": 855393, "name_en": "Marseille"}, {"name": "Heilbronn", "lat": 49.142291, "long": 9.218655, "population": 118122, "name_en": "Heilbronn"}, {"name": "Malm\u00f6", "lat": 55.6052931, "long": 13.0001566, "population": 303873, "name_en": null}, {"name": "Valmiera", "lat": 57.5391883, "long": 25.4216251, "population": 26674, "name_en": null}, {"name": "Truro", "lat": 50.2627515, "long": -5.0520467, "population": 20332, "name_en": null}, {"name": "Ripon", "lat": 54.1368788, "long": -1.5213194, "population": 16000, "name_en": null}, {"name": "\u0421\u0435\u0432\u0435\u0440\u043e\u0434\u0432\u0438\u043d\u0441\u043a", "lat": 64.563385, "long": 39.823769, "population": 186172, "name_en": "Severodvinsk"}, {"name": "\u041f\u0435\u0442\u0440\u043e\u0437\u0430\u0432\u043e\u0434\u0441\u043a", "lat": 61.790039, "long": 34.390007, "population": 275346, "name_en": "Petrozavodsk"}, {"name": "\u0412\u043e\u043b\u043e\u0433\u0434\u0430", "lat": 59.218876, "long": 39.893276, "population": 311166, "name_en": "Vologda"}, {"name": "Deva", "lat": 45.8820086, "long": 22.9044096, "population": 61123, "name_en": null}, {"name": "\u0422\u0432\u0435\u0440\u044c", "lat": 56.858675, "long": 35.9208284, "population": 414006, "name_en": "Tver"}, {"name": "Bilbao", "lat": 43.2629489, "long": -2.9349459, "population": 351629, "name_en": null}, {"name": "Vitoria-Gasteiz", "lat": 42.8464529, "long": -2.6724097, "population": 242223, "name_en": null}, {"name": "\u0412\u0435\u043b\u0438\u043a\u0438\u0439 \u041d\u043e\u0432\u0433\u043e\u0440\u043e\u0434", "lat": 58.5209862, "long": 31.2757862, "population": 216200, "name_en": "Veliky Novgorod"}, {"name": "\u041f\u0443\u0448\u043a\u0438\u043d", "lat": 59.722256, "long": 30.415731, "population": 100753, "name_en": "Pushkin"}, {"name": "\u041f\u0441\u043a\u043e\u0432", "lat": 57.817398, "long": 28.334368, "population": 206730, "name_en": "Pskov"}, {"name": "\u062f\u0647\u0628", "lat": 28.4960946, "long": 34.5143587, "population": 12000, "name_en": "Dahab"}, {"name": "\u041a\u0430\u043b\u0438\u043d\u0438\u043d\u0433\u0440\u0430\u0434", "lat": 54.7066422, "long": 20.5105166, "population": 453461, "name_en": "Kaliningrad"}, {"name": "\u0412\u0435\u043b\u0438\u043a\u0438\u0435 \u041b\u0443\u043a\u0438", "lat": 56.342361, "long": 30.527922, "population": 96514, "name_en": "Velikiye Luki"}, {"name": "\u0421\u043c\u043e\u043b\u0435\u043d\u0441\u043a", "lat": 54.7940965, "long": 32.0549595, "population": 330049, "name_en": "Smolensk"}, {"name": "\u0411\u0440\u044f\u043d\u0441\u043a", "lat": 53.2423778, "long": 34.3668288, "population": 407256, "name_en": "Bryansk"}, {"name": "\u0627\u0644\u063a\u0631\u062f\u0642\u0629", "lat": 27.2405016, "long": 33.8267842, "population": 190000, "name_en": "Hurghada"}, {"name": "\u041a\u0443\u0440\u0441\u043a", "lat": 51.739433, "long": 36.179604, "population": 443212, "name_en": "Kursk"}, {"name": "\u041e\u0440\u0451\u043b", "lat": 52.9685433, "long": 36.0692477, "population": 319550, "name_en": "Oryol"}, {"name": "\u0411\u0435\u043b\u0433\u043e\u0440\u043e\u0434", "lat": 50.595299, "long": 36.586933, "population": 384425, "name_en": "Belgorod"}, {"name": "\u041f\u043e\u043b\u0442\u0430\u0432\u0430", "lat": 49.5897423, "long": 34.5507948, "population": 297600, "name_en": "Poltava"}, {"name": "\u0417\u0430\u043f\u043e\u0440\u0456\u0436\u0436\u044f", "lat": 47.8507859, "long": 35.1182867, "population": 772258, "name_en": "Zaporizhzhia"}, {"name": "J\u0113kabpils", "lat": 56.4954937, "long": 25.8728624, "population": 2588, "name_en": null}, {"name": "\u05d0\u05d9\u05dc\u05ea", "lat": 29.5569348, "long": 34.9497949, "population": 47900, "name_en": "Eilat"}, {"name": "\u0645\u0631\u0633\u0649 \u0639\u0644\u0645", "lat": 25.069992, "long": 34.893817, "population": null, "name_en": "Marsa Alam"}, {"name": "\u0627\u0644\u0642\u0635\u064a\u0631", "lat": 26.1074544, "long": 34.2722393, "population": 50000, "name_en": "Al Qusair"}, {"name": "\u0633\u0641\u0627\u062c\u0627\u200e\u200e", "lat": 26.7633325, "long": 33.9383817, "population": 28261, "name_en": "Safaga"}, {"name": "Liep\u0101ja", "lat": 56.5111901, "long": 21.0184692, "population": 78787, "name_en": null}, {"name": "Pozna\u0144", "lat": 52.4082663, "long": 16.9335199, "population": 548028, "name_en": null}, {"name": "\u0411\u0440\u0435\u0441\u0442", "lat": 52.093751, "long": 23.6851851, "population": 343985, "name_en": "Brest"}, {"name": "Kaunas", "lat": 54.8982139, "long": 23.9044817, "population": 315993, "name_en": null}, {"name": "Vilnius", "lat": 54.6870458, "long": 25.2829111, "population": 526356, "name_en": null}, {"name": "Klaip\u0117da", "lat": 55.7127529, "long": 21.1350469, "population": 162360, "name_en": null}, {"name": "\u0160iauliai", "lat": 55.9340823, "long": 23.3157775, "population": 109328, "name_en": "\u0160iauliai"}, {"name": "Chichester", "lat": 50.8364862, "long": -0.7791721, "population": 23700, "name_en": null}, {"name": "\u0415\u0432\u043f\u0430\u0442\u043e\u0440\u0438\u044f", "lat": 45.1907635, "long": 33.3679049, "population": 105719, "name_en": "Yevpatoriya"}, {"name": "\u0421\u043b\u0443\u0446\u043a", "lat": 53.0300878, "long": 27.5550778, "population": 61436, "name_en": "Slutsk"}, {"name": "Basel", "lat": 47.5581077, "long": 7.5878261, "population": 174491, "name_en": "Basel"}, {"name": "Essen", "lat": 51.457087, "long": 7.011429, "population": 569884, "name_en": null}, {"name": "City of London", "lat": 51.5156177, "long": -0.0919983, "population": 7375, "name_en": "City of London"}, {"name": "City of Westminster", "lat": 51.4973206, "long": -0.137149, "population": 233292, "name_en": "Westminster"}, {"name": "Frankfurt am Main", "lat": 50.110653, "long": 8.682093, "population": 701350, "name_en": null}, {"name": "Norrk\u00f6ping", "lat": 58.5909124, "long": 16.1903511, "population": 87247, "name_en": null}, {"name": "G\u00e4vle", "lat": 60.6750132, "long": 17.1467019, "population": 100000, "name_en": null}, {"name": "Ume\u00e5", "lat": 63.8256568, "long": 20.2630745, "population": 79594, "name_en": null}, {"name": "\u0628\u0646\u062f\u0631 \u0627\u0646\u0632\u0644\u06cc", "lat": 37.4710992, "long": 49.468923, "population": 116700, "name_en": "Anzali Port"}, {"name": "St Asaph", "lat": 53.2575614, "long": -3.4438607, "population": 3500, "name_en": "St Asaph"}, {"name": "\u0421\u0430\u043d\u043a\u0442-\u041f\u0435\u0442\u0435\u0440\u0431\u0443\u0440\u0433", "lat": 59.938732, "long": 30.316229, "population": 5225690, "name_en": "Saint Petersburg"}, {"name": "\u0415\u043a\u0430\u0442\u0435\u0440\u0438\u043d\u0431\u0443\u0440\u0433", "lat": 56.839104, "long": 60.60825, "population": 1500394, "name_en": "Yekaterinburg"}, {"name": "\u0421\u0430\u043c\u0430\u0440\u0430", "lat": 53.198627, "long": 50.113987, "population": 1170910, "name_en": "Samara"}, {"name": "\u041a\u0430\u0437\u0430\u043d\u044c", "lat": 55.7823547, "long": 49.1242266, "population": 1216965, "name_en": "Kazan"}, {"name": "\u0427\u0435\u043b\u044f\u0431\u0438\u043d\u0441\u043a", "lat": 55.1598408, "long": 61.4025547, "population": 1198858, "name_en": "Chelyabinsk"}, {"name": "\u0423\u0444\u0430", "lat": 54.726288, "long": 55.947727, "population": 1110976, "name_en": "Ufa"}, {"name": "\u0412\u043e\u043b\u0433\u043e\u0433\u0440\u0430\u0434", "lat": 48.710678, "long": 44.516804, "population": 1017451, "name_en": "Volgograd"}, {"name": "\u041f\u0435\u0440\u043c\u044c", "lat": 58.014965, "long": 56.246723, "population": 1041876, "name_en": "Perm"}, {"name": "\u0421\u0430\u0440\u0430\u0442\u043e\u0432", "lat": 51.530018, "long": 46.034683, "population": 842097, "name_en": "Saratov"}, {"name": "\u0412\u043e\u0440\u043e\u043d\u0435\u0436", "lat": 51.6548797, "long": 39.212949, "population": 1023570, "name_en": "Voronezh"}, {"name": "\u0422\u043e\u043b\u044c\u044f\u0442\u0442\u0438", "lat": 53.51495, "long": 49.407574, "population": 710567, "name_en": "Tolyatti"}, {"name": "\u041a\u0440\u0430\u0441\u043d\u043e\u0434\u0430\u0440", "lat": 45.0354329, "long": 38.9757116, "population": 829677, "name_en": "Krasnodar"}, {"name": "\u042f\u0440\u043e\u0441\u043b\u0430\u0432\u043b\u044c", "lat": 57.6263877, "long": 39.8933705, "population": 603961, "name_en": "Yaroslavl"}, {"name": "\u041e\u0440\u0435\u043d\u0431\u0443\u0440\u0433", "lat": 51.767452, "long": 55.097118, "population": 561279, "name_en": "Orenburg"}, {"name": "\u0420\u044f\u0437\u0430\u043d\u044c", "lat": 54.6295687, "long": 39.7425039, "population": 532772, "name_en": "Ryazan"}, {"name": "\u041f\u0435\u043d\u0437\u0430", "lat": 53.200001, "long": 45.0, "population": 522823, "name_en": "Penza"}, {"name": "\u0422\u044e\u043c\u0435\u043d\u044c", "lat": 57.153534, "long": 65.542274, "population": 744554, "name_en": "Tyumen"}, {"name": "\u041d\u0438\u0436\u043d\u0438\u0439 \u041d\u043e\u0432\u0433\u043e\u0440\u043e\u0434", "lat": 56.328571, "long": 44.003506, "population": 1267760, "name_en": "Nizhny Novgorod"}, {"name": "Br\u0103ila", "lat": 45.2715045, "long": 27.9743799, "population": 180302, "name_en": null}, {"name": "Foc\u0219ani", "lat": 45.697274, "long": 27.1856921, "population": 97186, "name_en": null}, {"name": "V\u00e4ster\u00e5s", "lat": 59.6110992, "long": 16.5463679, "population": 110877, "name_en": null}, {"name": "\u0414\u0443\u0448\u0430\u043d\u0431\u0435", "lat": 38.5763119, "long": 68.7860218, "population": 543107, "name_en": "Dushanbe"}, {"name": "\u0647\u0645\u062f\u0627\u0646", "lat": 34.7983223, "long": 48.514849, "population": 526000, "name_en": "Hamedan"}, {"name": "\u00d6stersund", "lat": 63.1793655, "long": 14.6357061, "population": 44000, "name_en": null}, {"name": "Lule\u00e5", "lat": 65.5831352, "long": 22.1460134, "population": 73864, "name_en": null}, {"name": "Niamey", "lat": 13.524834, "long": 2.109823, "population": 1026848, "name_en": null}, {"name": "Constantine", "lat": 36.364519, "long": 6.60826, "population": 448374, "name_en": "Constantine"}, {"name": "\u0627\u0644\u0633\u0648\u064a\u0633", "lat": 29.974498, "long": 32.537086, "population": 488125, "name_en": "Suez"}, {"name": "\u062a\u0648\u0646\u0633", "lat": 36.800108, "long": 10.184794, "population": 728453, "name_en": "Tunis"}, {"name": "\u0628\u0648\u0631 \u0633\u0639\u064a\u062f", "lat": 31.263235, "long": 32.305505, "population": 538378, "name_en": "Port Said"}, {"name": "\u0627\u0644\u0625\u0633\u0643\u0646\u062f\u0631\u064a\u0629", "lat": 31.199004, "long": 29.894378, "population": 4546231, "name_en": "Alexandria"}, {"name": "Agadir \u2d30\u2d33\u2d30\u2d37\u2d49\u2d54 \u0623\u06af\u0627\u062f\u06cc\u0631", "lat": 30.421163, "long": -9.583076, "population": 421844, "name_en": "Agadir"}, {"name": "Oran", "lat": 35.7032751, "long": -0.6492976, "population": 852576, "name_en": "Oran"}, {"name": "\u0627\u0644\u062e\u0631\u0637\u0648\u0645", "lat": 15.593325, "long": 32.53565, "population": 2682431, "name_en": "Khartoum"}, {"name": "\u0628\u0646\u063a\u0627\u0632\u064a", "lat": 32.117076, "long": 20.0670036, "population": 696345, "name_en": "Benghazi"}, {"name": "\u0627\u0644\u062c\u064a\u0632\u0629", "lat": 30.0170059, "long": 31.2134513, "population": 2681863, "name_en": "Giza"}, {"name": "\u00d6rebro", "lat": 59.2747378, "long": 15.2149988, "population": 98237, "name_en": null}, {"name": "\u039a\u03c9\u03c2", "lat": 36.8940286, "long": 27.2866636, "population": 19432, "name_en": "Kos"}, {"name": "Pamplona / Iru\u00f1a", "lat": 42.8184538, "long": -1.6442556, "population": 196166, "name_en": "Pamplona"}, {"name": "Eskilstuna", "lat": 59.3717379, "long": 16.5051474, "population": 60185, "name_en": null}, {"name": "Gliwice", "lat": 50.294113, "long": 18.6657306, "population": 185450, "name_en": null}, {"name": "Siegen", "lat": 50.8749804, "long": 8.0227233, "population": 99403, "name_en": null}, {"name": "Oulu", "lat": 65.0118734, "long": 25.4716809, "population": 193825, "name_en": null}, {"name": "\u0646\u0638\u0631\u0622\u0628\u0627\u062f", "lat": 35.9558897, "long": 50.6097443, "population": null, "name_en": "Nazarabad"}, {"name": "\u05d9\u05e8\u05d5\u05e9\u05dc\u05d9\u05dd", "lat": 31.7791134, "long": 35.2266286, "population": 780200, "name_en": "Jerusalem"}, {"name": "Rijeka", "lat": 45.3269357, "long": 14.4409841, "population": 128735, "name_en": null}, {"name": "Segovia", "lat": 40.9502159, "long": -4.1241494, "population": 50309, "name_en": null}, {"name": "Valladolid", "lat": 41.6521328, "long": -4.728562, "population": 299186, "name_en": null}, {"name": "Safi \u2d30\u2d59\u2d3c\u2d49 \u0622\u0633\u0641\u064a", "lat": 32.299424, "long": -9.239533, "population": 485798, "name_en": "Safi"}, {"name": "\u0397\u03c1\u03ac\u03ba\u03bb\u03b5\u03b9\u03bf", "lat": 35.3340134, "long": 25.1328543, "population": 138000, "name_en": "Heraklion"}, {"name": "Ventspils", "lat": 57.3903918, "long": 21.5635991, "population": 41998, "name_en": null}, {"name": "\u0631\u0623\u0633 \u0633\u062f\u0631", "lat": 29.593487, "long": 32.718536, "population": null, "name_en": "Ras Sudr"}, {"name": "Chorz\u00f3w", "lat": 50.2978791, "long": 18.9544466, "population": 110761, "name_en": null}, {"name": "\u0632\u0639\u0641\u0631\u0627\u0646\u0629", "lat": 29.1119075, "long": 32.6592486, "population": null, "name_en": "Zaafaranah"}, {"name": "Assen", "lat": 52.9953538, "long": 6.560553, "population": 65643, "name_en": null}, {"name": "Neuss", "lat": 51.1981778, "long": 6.6916476, "population": 151875, "name_en": null}, {"name": "Klagenfurt", "lat": 46.6228162, "long": 14.3079604, "population": 99110, "name_en": null}, {"name": "Tallinn", "lat": 59.4372155, "long": 24.7453688, "population": 443623, "name_en": "Tallinn"}, {"name": "Bergisch Gladbach", "lat": 50.9929303, "long": 7.1277379, "population": 109425, "name_en": null}, {"name": "Buxoro", "lat": 39.7675529, "long": 64.4231326, "population": 267000, "name_en": "Bukhara"}, {"name": "\u041c\u0430\u0440\u0456\u0443\u043f\u043e\u043b\u044c", "lat": 47.0957773, "long": 37.5499333, "population": 453623, "name_en": "Mariupol"}, {"name": "\u0422\u0430\u0433\u0430\u043d\u0440\u043e\u0433", "lat": 47.2136896, "long": 38.903365, "population": 251050, "name_en": "Taganrog"}, {"name": "Mestre", "lat": 45.4943063, "long": 12.2418053, "population": 103050, "name_en": null}, {"name": "Lublin", "lat": 51.250559, "long": 22.5701022, "population": 343598, "name_en": "Lublin"}, {"name": "\u0141\u00f3d\u017a", "lat": 51.7687323, "long": 19.4569911, "population": 711332, "name_en": null}, {"name": "S\u00f6dert\u00e4lje", "lat": 59.1964289, "long": 17.6271663, "population": 64619, "name_en": null}, {"name": "\u0627\u0631\u062f\u0628\u06cc\u0644", "lat": 38.2493585, "long": 48.297455, "population": 482632, "name_en": "Ardabil"}, {"name": "Braunschweig", "lat": 52.2639962, "long": 10.5252669, "population": 247227, "name_en": "Brunswick"}, {"name": "Recklinghausen", "lat": 51.6143815, "long": 7.1978546, "population": 115320, "name_en": null}, {"name": "Daugavpils", "lat": 55.8776479, "long": 26.5286273, "population": 101057, "name_en": "Daugavpils"}, {"name": "Stavanger", "lat": 58.9680427, "long": 5.7324722, "population": 129300, "name_en": null}, {"name": "Szeged", "lat": 46.2546312, "long": 20.1486016, "population": 162621, "name_en": null}, {"name": "Ourense", "lat": 42.3436415, "long": -7.8674242, "population": 107186, "name_en": "Ourense"}, {"name": "Vantaa", "lat": 60.3091871, "long": 25.0364526, "population": 208052, "name_en": null}, {"name": "Girona", "lat": 41.9793006, "long": 2.8199439, "population": 92186, "name_en": null}, {"name": "Tampere", "lat": 61.4980214, "long": 23.7603118, "population": 220579, "name_en": null}, {"name": "Kuopio", "lat": 62.8924601, "long": 27.6781839, "population": 106388, "name_en": null}, {"name": "Lahti", "lat": 60.9838761, "long": 25.6561814, "population": 103416, "name_en": null}, {"name": "Joensuu", "lat": 62.6008163, "long": 29.7605356, "population": 74279, "name_en": null}, {"name": "Kouvola", "lat": 60.8701956, "long": 26.7018091, "population": 86961, "name_en": null}, {"name": "Lappeenranta", "lat": 61.0582424, "long": 28.1875302, "population": 72698, "name_en": null}, {"name": "Sein\u00e4joki", "lat": 62.7954104, "long": 22.8442015, "population": 60371, "name_en": null}, {"name": "H\u00e4meenlinna", "lat": 61.0000058, "long": 24.4499748, "population": 68001, "name_en": null}, {"name": "\u0411\u043b\u0430\u0433\u043e\u0435\u0432\u0433\u0440\u0430\u0434", "lat": 42.0111077, "long": 23.0906457, "population": 75079, "name_en": "Blagoevgrad"}, {"name": "\u0411\u0443\u0440\u0433\u0430\u0441", "lat": 42.4942274, "long": 27.4550161, "population": 206371, "name_en": "Burgas"}, {"name": "\u0414\u043e\u0431\u0440\u0438\u0447", "lat": 43.5688397, "long": 27.8297415, "population": 89627, "name_en": "Dobrich"}, {"name": "\u0413\u0430\u0431\u0440\u043e\u0432\u043e", "lat": 42.8744219, "long": 25.3192189, "population": 59611, "name_en": "Gabrovo"}, {"name": "\u0425\u0430\u0441\u043a\u043e\u0432\u043e", "lat": 41.9345727, "long": 25.5556639, "population": 76587, "name_en": "Haskovo"}, {"name": "\u042f\u043c\u0431\u043e\u043b", "lat": 42.483935, "long": 26.5105553, "population": 76599, "name_en": "Yambol"}, {"name": "\u041a\u044a\u0440\u0434\u0436\u0430\u043b\u0438", "lat": 41.643746, "long": 25.3722156, "population": 49421, "name_en": "Kardzhali"}, {"name": "\u041a\u044e\u0441\u0442\u0435\u043d\u0434\u0438\u043b", "lat": 42.2809956, "long": 22.6890196, "population": 47640, "name_en": "Kyustendil"}, {"name": "\u041b\u043e\u0432\u0435\u0447", "lat": 43.1349971, "long": 24.715431, "population": 37297, "name_en": "Lovech"}, {"name": "\u041c\u043e\u043d\u0442\u0430\u043d\u0430", "lat": 43.4088984, "long": 23.2203193, "population": 44502, "name_en": "Montana"}, {"name": "\u041f\u0430\u0437\u0430\u0440\u0434\u0436\u0438\u043a", "lat": 42.1884549, "long": 24.3318993, "population": 76739, "name_en": "Pazardzhik"}, {"name": "\u041f\u043b\u0435\u0432\u0435\u043d", "lat": 43.409022, "long": 24.6180123, "population": 111567, "name_en": "Pleven"}, {"name": "\u0420\u0430\u0437\u0433\u0440\u0430\u0434", "lat": 43.5258211, "long": 26.5230603, "population": 35049, "name_en": "Razgrad"}, {"name": "\u0421\u0438\u043b\u0438\u0441\u0442\u0440\u0430", "lat": 44.1191686, "long": 27.2613605, "population": 37923, "name_en": "Silistra"}, {"name": "\u0421\u043b\u0438\u0432\u0435\u043d", "lat": 42.6817633, "long": 26.3153528, "population": 95806, "name_en": "Sliven"}, {"name": "\u0421\u043c\u043e\u043b\u044f\u043d", "lat": 41.5768238, "long": 24.7010351, "population": 30507, "name_en": "Smolyan"}, {"name": "\u0422\u044a\u0440\u0433\u043e\u0432\u0438\u0449\u0435", "lat": 43.251196, "long": 26.5727944, "population": 39578, "name_en": "Targovishte"}, {"name": "\u0412\u0430\u0440\u043d\u0430", "lat": 43.2166104, "long": 27.9017131, "population": 348058, "name_en": "Varna"}, {"name": "\u0412\u0435\u043b\u0438\u043a\u043e \u0422\u044a\u0440\u043d\u043e\u0432\u043e", "lat": 43.0820584, "long": 25.6321312, "population": 71150, "name_en": "Veliko Tarnovo"}, {"name": "\u0412\u0438\u0434\u0438\u043d", "lat": 44.0004807, "long": 22.8833219, "population": 50977, "name_en": "Vidin"}, {"name": "\u0412\u0440\u0430\u0446\u0430", "lat": 43.2049102, "long": 23.5556418, "population": 60877, "name_en": "Vratsa"}, {"name": "Wolfsburg", "lat": 52.4205588, "long": 10.7861682, "population": 122457, "name_en": null}, {"name": "Dubai", "lat": 25.2683521, "long": 55.2961962, "population": 1984000, "name_en": "Dubai"}, {"name": "Drammen", "lat": 59.7436749, "long": 10.2043749, "population": 68000, "name_en": null}, {"name": "Kristiansand", "lat": 58.1467082, "long": 7.995766, "population": 60583, "name_en": null}, {"name": "Trondheim", "lat": 63.4305658, "long": 10.3951929, "population": 180000, "name_en": null}, {"name": "Bydgoszcz", "lat": 53.1219648, "long": 18.0002529, "population": 357652, "name_en": null}, {"name": "S\u0142upsk", "lat": 54.4649331, "long": 17.028073, "population": 93936, "name_en": null}, {"name": "Koszalin", "lat": 54.19092, "long": 16.17707, "population": 109170, "name_en": null}, {"name": "\u0628\u0646\u0647\u0627", "lat": 30.4624974, "long": 31.184063, "population": 167029, "name_en": "Banha"}, {"name": "\u03a1\u03ad\u03b8\u03c5\u03bc\u03bd\u03bf", "lat": 35.3676472, "long": 24.4736079, "population": 29000, "name_en": "Rethymno"}, {"name": "\u03a7\u03b1\u03bd\u03b9\u03ac", "lat": 35.5141834, "long": 24.0181459, "population": 53910, "name_en": "Chania"}, {"name": "Nador \u2d4f\u2d30\u2d39\u2d53\u2d55 \u0646\u0627\u0638\u0648\u0631", "lat": 35.1739922, "long": -2.9281198, "population": 161726, "name_en": "Nador"}, {"name": "Le\u00f3n", "lat": 42.5989995, "long": -5.5682413, "population": 121393, "name_en": null}, {"name": "Suwa\u0142ki", "lat": 54.1004445, "long": 22.9331022, "population": 69317, "name_en": null}, {"name": "Elbl\u0105g", "lat": 54.1558708, "long": 19.4044583, "population": 126460, "name_en": null}, {"name": "Ostro\u0142\u0119ka", "lat": 53.0828787, "long": 21.5728938, "population": 52917, "name_en": null}, {"name": "\u0141om\u017ca", "lat": 53.1750699, "long": 22.0727551, "population": 63004, "name_en": null}, {"name": "\u0627\u0644\u0645\u0646\u0635\u0648\u0631\u0629", "lat": 31.037566, "long": 31.38649, "population": 420195, "name_en": "Mansoura"}, {"name": "\u0627\u0644\u0645\u062d\u0644\u0629 \u0627\u0644\u0643\u0628\u0631\u0649", "lat": 30.9723517, "long": 31.1683002, "population": 431052, "name_en": "Mahalla al Kubra"}, {"name": "\u0643\u0641\u0631 \u0627\u0644\u0634\u064a\u062e\u200e", "lat": 31.111221, "long": 30.9401454, "population": 152000, "name_en": "Kafr Al-Sheikh"}, {"name": "Bia\u0142a Podlaska", "lat": 52.0338399, "long": 23.1193948, "population": 57658, "name_en": null}, {"name": "Skierniewice", "lat": 51.9568581, "long": 20.1430044, "population": 48634, "name_en": null}, {"name": "Radom", "lat": 51.4010698, "long": 21.1534113, "population": 218466, "name_en": null}, {"name": "Tarnobrzeg", "lat": 50.5718757, "long": 21.6785203, "population": 48217, "name_en": null}, {"name": "Katowice", "lat": 50.2598987, "long": 19.0215852, "population": 304362, "name_en": null}, {"name": "Jaworzno", "lat": 50.203439, "long": 19.2721559, "population": 93708, "name_en": null}, {"name": "Cz\u0119stochowa", "lat": 50.8120466, "long": 19.113213, "population": 232318, "name_en": null}, {"name": "Zabrze", "lat": 50.3070272, "long": 18.7854765, "population": 178357, "name_en": null}, {"name": "Wa\u0142brzych", "lat": 50.7659054, "long": 16.2825424, "population": 122927, "name_en": null}, {"name": "Ruda \u015al\u0105ska", "lat": 50.2732418, "long": 18.8594072, "population": 141521, "name_en": null}, {"name": "Trier", "lat": 49.7596208, "long": 6.6441878, "population": 107233, "name_en": "Trier"}, {"name": "Reutlingen", "lat": 48.4919508, "long": 9.2114144, "population": 112099, "name_en": null}, {"name": "\u0627\u0644\u062e\u0628\u0631", "lat": 26.3039999, "long": 50.1960237, "population": 500000, "name_en": "Al Khobar"}, {"name": "Kecskem\u00e9t", "lat": 46.9080769, "long": 19.6928133, "population": 111724, "name_en": null}, {"name": "B\u00e9k\u00e9scsaba", "lat": 46.6849789, "long": 21.0866918, "population": 60126, "name_en": null}, {"name": "\u062d\u0644\u0628", "lat": 36.197971, "long": 37.1656697, "population": 2301000, "name_en": "Aleppo"}, {"name": "Olsztyn", "lat": 53.7754106, "long": 20.4812248, "population": 174675, "name_en": null}, {"name": "Cluj-Napoca", "lat": 46.7693367, "long": 23.5900604, "population": 324576, "name_en": null}, {"name": "\u062f\u0632\u0641\u0648\u0644", "lat": 32.3780494, "long": 48.4032531, "population": 248380, "name_en": "Dezful"}, {"name": "\u06a9\u0631\u0645\u0627\u0646\u0634\u0627\u0647", "lat": 34.3239414, "long": 47.0735864, "population": 1000000, "name_en": "Kermanshah"}, {"name": "Plze\u0148", "lat": 49.7477415, "long": 13.3775249, "population": 150824, "name_en": null}, {"name": "\u0645\u0647\u0627\u0628\u0627\u062f", "lat": 36.7651739, "long": 45.7218136, "population": 215529, "name_en": "Mahabad"}, {"name": "\u0628\u0627\u0628\u0644", "lat": 36.5452581, "long": 52.6846571, "population": 220000, "name_en": "Babol"}, {"name": "\u0633\u0627\u0631\u06cc", "lat": 36.5658725, "long": 53.058569, "population": 300000, "name_en": "Sari"}, {"name": "\u0633\u0628\u0632\u0648\u0627\u0631", "lat": 36.2134053, "long": 57.6808799, "population": 231557, "name_en": "Sabzevar"}, {"name": "\u0646\u06cc\u0634\u0627\u0628\u0648\u0631", "lat": 36.210595, "long": 58.7922805, "population": 239185, "name_en": "Neyshabur"}, {"name": "\u0634\u0647\u0631\u06a9\u0631\u062f", "lat": 32.3257366, "long": 50.8497369, "population": 159775, "name_en": "Shahr-e Kord"}, {"name": "\u0628\u06cc\u0631\u062c\u0646\u062f", "lat": 32.8636172, "long": 59.2175477, "population": 180000, "name_en": "Birjand"}, {"name": "\u06a9\u0631\u0645\u0627\u0646", "lat": 30.2924363, "long": 57.0646827, "population": 534441, "name_en": "Kerman"}, {"name": "\u0633\u06cc\u0631\u062c\u0627\u0646", "lat": 29.4447686, "long": 55.6712851, "population": null, "name_en": "Sirjan"}, {"name": "\u0628\u0645", "lat": 29.1059864, "long": 58.3565663, "population": null, "name_en": "Bam"}, {"name": "\u0632\u0627\u0628\u0644", "lat": 31.0277779, "long": 61.4948211, "population": 140000, "name_en": "Zabol"}, {"name": "\u0622\u0628\u0627\u062f\u0627\u0646", "lat": 30.3636097, "long": 48.2591475, "population": 217988, "name_en": "Abadan"}, {"name": "\u0628\u062c\u0646\u0648\u0631\u062f", "lat": 37.4759752, "long": 57.3319881, "population": 207196, "name_en": "Bojnord"}, {"name": "\u0628\u0648\u0634\u0647\u0631", "lat": 28.9685469, "long": 50.8403297, "population": 195222, "name_en": "Bushehr"}, {"name": "\u0628\u0648\u06a9\u0627\u0646", "lat": 36.5215796, "long": 46.2130412, "population": 170600, "name_en": "Bukan"}, {"name": "\u0627\u0633\u0644\u0627\u0645\u0634\u0647\u0631", "lat": 35.5496155, "long": 51.2332105, "population": 684107, "name_en": "Eslamshahr"}, {"name": "\u0632\u0646\u062c\u0627\u0646", "lat": 36.6679744, "long": 48.483038, "population": 386851, "name_en": "Zanjan"}, {"name": "Panev\u0117\u017eys", "lat": 55.7344985, "long": 24.3578055, "population": 99690, "name_en": null}, {"name": "Fier", "lat": 40.7250935, "long": 19.5582186, "population": 60000, "name_en": "Fier"}, {"name": "Vlor\u00eb", "lat": 40.4695908, "long": 19.4837727, "population": 124000, "name_en": "Vlora"}, {"name": "Gen\u00e8ve", "lat": 46.2017559, "long": 6.1466014, "population": 191557, "name_en": "Geneva"}, {"name": "Magdeburg", "lat": 52.1315889, "long": 11.6399609, "population": 231021, "name_en": null}, {"name": "\u0421\u043e\u0447\u0438", "lat": 43.5854823, "long": 39.723109, "population": 389946, "name_en": "Sochi"}, {"name": "Val\u00e8ncia", "lat": 39.4699014, "long": -0.3759513, "population": 797654, "name_en": "Valencia"}, {"name": "\u0422\u0443\u043b\u0430", "lat": 54.1930321, "long": 37.61754, "population": 487841, "name_en": "Tula"}, {"name": "\u041d\u0430\u0437\u0440\u0430\u043d\u044c", "lat": 43.2177784, "long": 44.765908, "population": 113288, "name_en": "Nazran"}, {"name": "\u041d\u0438\u0436\u043d\u0438\u0439 \u0422\u0430\u0433\u0438\u043b", "lat": 57.905149, "long": 59.9508466, "population": 356773, "name_en": "Nizhny Tagil"}, {"name": "Rzesz\u00f3w", "lat": 50.0374531, "long": 22.0047174, "population": 183108, "name_en": null}, {"name": "Tarn\u00f3w", "lat": 50.0123784, "long": 20.9880739, "population": 112120, "name_en": null}, {"name": "Innsbruck", "lat": 47.2654296, "long": 11.3927685, "population": 127000, "name_en": "Innsbruck"}, {"name": "Salzburg", "lat": 47.7981346, "long": 13.0464806, "population": 152083, "name_en": "Salzburg"}, {"name": "Tinghir \u2d5c\u2d49\u2d4f\u2d56\u2d49\u2d54 \u062a\u064a\u0646\u063a\u064a\u0631", "lat": 31.52133, "long": -5.531164, "population": 42044, "name_en": "Tinghir"}, {"name": "Lausanne", "lat": 46.5218269, "long": 6.6327025, "population": 133521, "name_en": null}, {"name": "Maribor", "lat": 46.555628, "long": 15.64477, "population": 96000, "name_en": null}, {"name": "\u0421\u0442\u0430\u0432\u0440\u043e\u043f\u043e\u043b\u044c", "lat": 45.0433245, "long": 41.9690934, "population": 425853, "name_en": "Stavropol"}, {"name": "\u0627\u0644\u0645\u0646\u0627\u0645\u0629", "lat": 26.2235041, "long": 50.5822436, "population": 157474, "name_en": "Manama"}, {"name": "\u0627\u0644\u062c\u0628\u064a\u0644", "lat": 27.0006968, "long": 49.6532161, "population": 150367, "name_en": "Jubail"}, {"name": "\u0414\u043e\u043d\u0435\u0446\u044c\u043a", "lat": 48.0158753, "long": 37.8013407, "population": 929063, "name_en": "Donetsk"}, {"name": "Maastricht", "lat": 50.8512438, "long": 5.6909768, "population": 115000, "name_en": null}, {"name": "Eindhoven", "lat": 51.4392648, "long": 5.478633, "population": 223876, "name_en": null}, {"name": "Rotterdam", "lat": 51.9228958, "long": 4.4631727, "population": 625472, "name_en": "Rotterdam"}, {"name": "Arnhem", "lat": 51.9846929, "long": 5.9115982, "population": 152506, "name_en": null}, {"name": "Almere", "lat": 52.374451, "long": 5.2123307, "population": 197318, "name_en": null}, {"name": "Nowy S\u0105cz", "lat": 49.6249173, "long": 20.691346, "population": 83943, "name_en": null}, {"name": "Ajaccio", "lat": 41.9263991, "long": 8.7376029, "population": 66809, "name_en": null}, {"name": "Badalona", "lat": 41.4493539, "long": 2.248254, "population": 220888, "name_en": null}, {"name": "Waterford", "lat": 52.2609997, "long": -7.1119081, "population": 48369, "name_en": "Waterford"}, {"name": "Luxembourg", "lat": 49.6112768, "long": 6.129799, "population": 103641, "name_en": "Luxembourg"}, {"name": "Timi\u0219oara", "lat": 45.7538355, "long": 21.2257474, "population": 319279, "name_en": null}, {"name": "\u039b\u03ac\u03c1\u03b9\u03c3\u03b1", "lat": 39.6383092, "long": 22.4160706, "population": 162591, "name_en": "Larissa"}, {"name": "\u039a\u03b1\u03c4\u03b5\u03c1\u03af\u03bd\u03b7", "lat": 40.2713616, "long": 22.5087618, "population": 56000, "name_en": "Katerini"}, {"name": "\u0398\u03b5\u03c3\u03c3\u03b1\u03bb\u03bf\u03bd\u03af\u03ba\u03b7", "lat": 40.6403167, "long": 22.9352716, "population": 790824, "name_en": "Thessaloniki"}, {"name": "R\u0113zekne", "lat": 56.506281, "long": 27.3306623, "population": 33936, "name_en": null}, {"name": "Sighi\u0219oara", "lat": 46.2176969, "long": 24.7937765, "population": 32570, "name_en": null}, {"name": "\u041d\u043e\u0432\u0438 \u0421\u0430\u0434", "lat": 45.2551338, "long": 19.8451756, "population": 250439, "name_en": "Novi Sad"}, {"name": "Ploie\u0219ti", "lat": 44.9417468, "long": 26.0236504, "population": 209945, "name_en": null}, {"name": "Bia\u0142ystok", "lat": 53.132398, "long": 23.1591679, "population": 295459, "name_en": null}, {"name": "\u041a\u043e\u043b\u043f\u0438\u043d\u043e", "lat": 59.748444, "long": 30.604479, "population": 144412, "name_en": "Kolpino"}, {"name": "'s-Hertogenbosch", "lat": 51.6889351, "long": 5.3031044, "population": 151608, "name_en": null}, {"name": "\u041c\u0438\u043a\u043e\u043b\u0430\u0457\u0432", "lat": 46.9659167, "long": 32.0035348, "population": 496689, "name_en": "Mykolaiv"}, {"name": "\u0411\u0435\u043e\u0433\u0440\u0430\u0434", "lat": 44.8178131, "long": 20.4568974, "population": 1346930, "name_en": "Belgrade"}, {"name": "Buz\u0103u", "lat": 45.1490064, "long": 26.8306557, "population": 115494, "name_en": null}, {"name": "\u0417\u0440\u0435\u045a\u0430\u043d\u0438\u043d", "lat": 45.3802683, "long": 20.3907614, "population": 79773, "name_en": "Zrenjanin"}, {"name": "Firenze", "lat": 43.7698712, "long": 11.2555757, "population": 382808, "name_en": "Florence"}, {"name": "Arezzo", "lat": 43.4628957, "long": 11.8781675, "population": 99543, "name_en": null}, {"name": "Grosseto", "lat": 42.7597261, "long": 11.1137389, "population": 82087, "name_en": null}, {"name": "Massa", "lat": 44.0359323, "long": 10.1395519, "population": 69479, "name_en": null}, {"name": "Pistoia", "lat": 43.9336213, "long": 10.9174238, "population": 90315, "name_en": null}, {"name": "Prato", "lat": 43.880598, "long": 11.0969262, "population": 191150, "name_en": null}, {"name": "Siena", "lat": 43.3185536, "long": 11.3316533, "population": 53903, "name_en": null}, {"name": "\u03a0\u03ac\u03c4\u03c1\u03b1", "lat": 38.246242, "long": 21.7350847, "population": 240895, "name_en": "Patras"}, {"name": "Milano", "lat": 45.4667971, "long": 9.1904984, "population": 1350487, "name_en": "Milan"}, {"name": "Brescia", "lat": 45.5399392, "long": 10.2204897, "population": 187567, "name_en": null}, {"name": "Como", "lat": 45.8106992, "long": 9.0863001, "population": 83422, "name_en": null}, {"name": "Cremona", "lat": 45.1346168, "long": 10.0251103, "population": 70887, "name_en": null}, {"name": "Lecco", "lat": 45.8553764, "long": 9.389605, "population": 45501, "name_en": null}, {"name": "Lodi", "lat": 45.3138959, "long": 9.503263, "population": 40805, "name_en": null}, {"name": "Mantova", "lat": 45.1566683, "long": 10.7917191, "population": 47790, "name_en": "Mantua"}, {"name": "Pavia", "lat": 45.1860043, "long": 9.1546375, "population": 71214, "name_en": null}, {"name": "Sondrio", "lat": 46.1709447, "long": 9.8767107, "population": 21642, "name_en": null}, {"name": "Varese", "lat": 45.8183902, "long": 8.823913, "population": 80629, "name_en": null}, {"name": "Monza", "lat": 45.5834418, "long": 9.2735257, "population": 120204, "name_en": "Monza"}, {"name": "Kh\u00e9misset \u2d45\u2d3b\u2d4e\u2d49\u2d59\u2d59\u2d3b\u2d5c \u0627\u0644\u062e\u0645\u064a\u0633\u0627\u062a", "lat": 33.830287, "long": -6.072605, "population": 111971, "name_en": null}, {"name": "Taza \u2d5c\u2d30\u2d63\u2d30 \u062a\u0627\u0632\u0629", "lat": 34.230155, "long": -4.010104, "population": 160000, "name_en": "Taza"}, {"name": "Torino", "lat": 45.0677551, "long": 7.6824892, "population": 902000, "name_en": "Turin"}, {"name": "Alessandria", "lat": 44.9129225, "long": 8.615321, "population": 85438, "name_en": null}, {"name": "Asti", "lat": 44.900542, "long": 8.2068876, "population": 71276, "name_en": null}, {"name": "Biella", "lat": 45.5664109, "long": 8.0542758, "population": 45740, "name_en": null}, {"name": "Cuneo", "lat": 44.3895619, "long": 7.5478699, "population": 55939, "name_en": null}, {"name": "Novara", "lat": 45.4464036, "long": 8.619655, "population": 100910, "name_en": null}, {"name": "Verbania", "lat": 45.9221715, "long": 8.5516789, "population": 30866, "name_en": null}, {"name": "Vercelli", "lat": 45.3251557, "long": 8.4227666, "population": 45132, "name_en": null}, {"name": "Miskolc", "lat": 48.1031517, "long": 20.7902158, "population": 158101, "name_en": null}, {"name": "Gy\u0151r", "lat": 47.687609, "long": 17.6346815, "population": 129568, "name_en": null}, {"name": "Ny\u00edregyh\u00e1za", "lat": 47.9557802, "long": 21.7167982, "population": 118058, "name_en": null}, {"name": "Trento", "lat": 46.0664228, "long": 11.1257601, "population": 117317, "name_en": null}, {"name": "Bolzano - Bozen", "lat": 46.4981125, "long": 11.3547801, "population": 105713, "name_en": null}, {"name": "Venezia", "lat": 45.4371908, "long": 12.3345899, "population": 263352, "name_en": "Venice"}, {"name": "Rovigo", "lat": 45.0698166, "long": 11.78882, "population": 51867, "name_en": null}, {"name": "Treviso", "lat": 45.6658505, "long": 12.2455414, "population": 83731, "name_en": null}, {"name": "Verona", "lat": 45.4384958, "long": 10.9924122, "population": 258765, "name_en": null}, {"name": "Vicenza", "lat": 45.5488306, "long": 11.5478825, "population": 112953, "name_en": null}, {"name": "Ja\u00e9n", "lat": 37.7728858, "long": -3.7883289, "population": 116790, "name_en": null}, {"name": "Montpellier", "lat": 43.6112422, "long": 3.8767337, "population": 276054, "name_en": null}, {"name": "Matar\u00f3", "lat": 41.5398408, "long": 2.4448953, "population": 116698, "name_en": null}, {"name": "Trieste", "lat": 45.6500335, "long": 13.7706559, "population": 204420, "name_en": "Triest"}, {"name": "Pordenone", "lat": 45.9562503, "long": 12.6597197, "population": 51229, "name_en": null}, {"name": "Udine", "lat": 46.0634632, "long": 13.2358377, "population": 99169, "name_en": null}, {"name": "Genova", "lat": 44.40726, "long": 8.9338624, "population": 586655, "name_en": "Genoa"}, {"name": "Imperia", "lat": 43.8862958, "long": 8.0267106, "population": 41999, "name_en": null}, {"name": "La Spezia", "lat": 44.107033, "long": 9.8282255, "population": 93959, "name_en": null}, {"name": "Savona", "lat": 44.3080251, "long": 8.4810315, "population": 61345, "name_en": null}, {"name": "Recco", "lat": 44.3652396, "long": 9.1462995, "population": 9752, "name_en": null}, {"name": "Palermo", "lat": 38.11127, "long": 13.3534422, "population": 686722, "name_en": null}, {"name": "Agrigento", "lat": 37.3122991, "long": 13.57465, "population": 54619, "name_en": null}, {"name": "Caltanissetta", "lat": 37.4898289, "long": 14.0632916, "population": 61438, "name_en": null}, {"name": "Catania", "lat": 37.5021788, "long": 15.0872574, "population": 314555, "name_en": null}, {"name": "Messina", "lat": 38.1937571, "long": 15.5542082, "population": 238439, "name_en": null}, {"name": "Ragusa", "lat": 36.9219828, "long": 14.7213455, "population": 73313, "name_en": null}, {"name": "Trapani", "lat": 38.0160543, "long": 12.5437475, "population": 70654, "name_en": null}, {"name": "Reggio di Calabria", "lat": 38.1035389, "long": 15.6397556, "population": 183035, "name_en": null}, {"name": "Catanzaro", "lat": 38.9076353, "long": 16.5960465, "population": 90610, "name_en": null}, {"name": "Cosenza", "lat": 39.3099931, "long": 16.2501929, "population": 67546, "name_en": null}, {"name": "Crotone", "lat": 39.0806223, "long": 17.127196, "population": 62178, "name_en": null}, {"name": "Potenza", "lat": 40.6384046, "long": 15.8022077, "population": 67122, "name_en": null}, {"name": "Matera", "lat": 40.668523, "long": 16.601585, "population": 60436, "name_en": null}, {"name": "Campobasso", "lat": 41.5597935, "long": 14.6602725, "population": 49431, "name_en": null}, {"name": "Perugia", "lat": 43.1119613, "long": 12.3890104, "population": 166134, "name_en": null}, {"name": "Terni", "lat": 42.5641417, "long": 12.6405466, "population": 111501, "name_en": null}, {"name": "Bari", "lat": 41.1257843, "long": 16.8620293, "population": 326344, "name_en": null}, {"name": "Brindisi", "lat": 40.6395295, "long": 17.945526, "population": 88302, "name_en": null}, {"name": "Lecce", "lat": 40.3570373, "long": 18.1718482, "population": 94773, "name_en": null}, {"name": "Taranto", "lat": 40.4712427, "long": 17.2432278, "population": 201100, "name_en": null}, {"name": "Andria", "lat": 41.227674, "long": 16.2947553, "population": 100440, "name_en": null}, {"name": "Trani", "lat": 41.275088, "long": 16.4162585, "population": 56217, "name_en": null}, {"name": "Avellino", "lat": 40.9141958, "long": 14.7888764, "population": 54847, "name_en": null}, {"name": "Benevento", "lat": 41.1295587, "long": 14.7824639, "population": 60091, "name_en": null}, {"name": "Caserta", "lat": 41.0820827, "long": 14.334708, "population": 76326, "name_en": null}, {"name": "Salerno", "lat": 40.6801561, "long": 14.7596754, "population": 150188, "name_en": null}, {"name": "Giugliano in Campania", "lat": 40.9286872, "long": 14.2006989, "population": 122974, "name_en": null}, {"name": "Forl\u00ec", "lat": 44.2226017, "long": 12.0409384, "population": 117913, "name_en": null}, {"name": "Modena", "lat": 44.6458885, "long": 10.9255707, "population": 184973, "name_en": null}, {"name": "Parma", "lat": 44.8013678, "long": 10.3280833, "population": 192836, "name_en": null}, {"name": "Ravenna", "lat": 44.4161414, "long": 12.2017617, "population": 159116, "name_en": null}, {"name": "Reggio nell'Emilia", "lat": 44.6978446, "long": 10.6304958, "population": 171345, "name_en": null}, {"name": "Rimini", "lat": 44.0593897, "long": 12.5684371, "population": 147750, "name_en": null}, {"name": "Ancona", "lat": 43.6170137, "long": 13.5170982, "population": 100861, "name_en": null}, {"name": "L'Aquila", "lat": 42.348903, "long": 13.3981527, "population": 69753, "name_en": null}, {"name": "Chieti", "lat": 42.3446529, "long": 14.1659738, "population": 51815, "name_en": null}, {"name": "Teramo", "lat": 42.6612893, "long": 13.6983524, "population": 54892, "name_en": null}, {"name": "Roma", "lat": 41.8933203, "long": 12.4829321, "population": 2864731, "name_en": "Rome"}, {"name": "Latina", "lat": 41.4672589, "long": 12.9035737, "population": 126161, "name_en": null}, {"name": "Rieti", "lat": 42.4016906, "long": 12.8629993, "population": 47751, "name_en": null}, {"name": "Viterbo", "lat": 42.4164974, "long": 12.1039438, "population": 67173, "name_en": null}, {"name": "Casteddu/Cagliari", "lat": 39.2169525, "long": 9.1128513, "population": 154478, "name_en": null}, {"name": "l'Alguer/Alghero", "lat": 40.5600205, "long": 8.3151473, "population": 43800, "name_en": null}, {"name": "\u0627\u0644\u062f\u0628\u0629", "lat": 18.043988, "long": 30.95119, "population": 52000, "name_en": "Al Dabbah"}, {"name": "\u062f\u0646\u0642\u0644\u0627", "lat": 19.1728506, "long": 30.4731589, "population": 13500, "name_en": "Dongola"}, {"name": "Sz\u00e9kesfeh\u00e9rv\u00e1r", "lat": 47.1910169, "long": 18.410811, "population": 98207, "name_en": null}, {"name": "\u041b\u0438\u043f\u0435\u0446\u043a", "lat": 52.6041877, "long": 39.5936899, "population": 510152, "name_en": "Lipetsk"}, {"name": "\u0412\u043e\u0442\u043a\u0438\u043d\u0441\u043a", "lat": 57.052505, "long": 53.990612, "population": 98134, "name_en": "Votkinsk"}, {"name": "\u06a9\u0648\u0626\u0679\u06c1", "lat": 30.1898158, "long": 67.019087, "population": 896090, "name_en": "Quetta"}, {"name": "\u0627\u0644\u0639\u064a\u0646", "lat": 24.2258413, "long": 55.7474052, "population": 374000, "name_en": "Al Ain"}, {"name": "Jyv\u00e4skyl\u00e4", "lat": 62.2393002, "long": 25.745951, "population": 135961, "name_en": null}, {"name": "Vigo", "lat": 42.2376602, "long": -8.7247205, "population": 297332, "name_en": null}, {"name": "Budapest", "lat": 47.4983815, "long": 19.0404707, "population": 1759407, "name_en": "Budapest"}, {"name": "\u041d\u043e\u0432\u043e\u0440\u043e\u0441\u0441\u0438\u0439\u0441\u043a", "lat": 44.7239578, "long": 37.7690711, "population": 262250, "name_en": "Novorossiysk"}, {"name": "\u0633\u06a9\u06be\u0631/ \u0633\u06a9\u0631\u200e", "lat": 27.6961883, "long": 68.8588754, "population": 850000, "name_en": "Sukkur"}, {"name": "Tombouctou", "lat": 16.7719091, "long": -3.0087272, "population": 36000, "name_en": "Timbuktu"}, {"name": "Gao", "lat": 16.2788129, "long": -0.0412392, "population": 58000, "name_en": "Gao"}, {"name": "\u0634\u0646\u062f\u064a", "lat": 16.6884963, "long": 33.432286, "population": null, "name_en": "Shendi"}, {"name": "\u0639\u0637\u0628\u0631\u0629", "lat": 17.690719, "long": 33.98073, "population": 111399, "name_en": "Atbara"}, {"name": "\u0631\u0641\u0627\u0639\u0629", "lat": 14.7677692, "long": 33.3659991, "population": null, "name_en": "Rufaah"}, {"name": "\u06af\u0648\u0627\u062f\u0631", "lat": 25.1479816, "long": 62.3254553, "population": null, "name_en": "Gwadar"}, {"name": "\u041e\u0431\u043d\u0438\u043d\u0441\u043a", "lat": 55.0951738, "long": 36.611913, "population": 109365, "name_en": "Obninsk"}, {"name": "\u041d\u0430\u043b\u044c\u0447\u0438\u043a", "lat": 43.4922651, "long": 43.6175546, "population": 239040, "name_en": "Nalchik"}, {"name": "\u0627\u0644\u0645\u0648\u0635\u0644", "lat": 36.3415843, "long": 43.1291386, "population": 664221, "name_en": "Old Mosul"}, {"name": "Bucure\u0219ti", "lat": 44.4361414, "long": 26.1027202, "population": 1883425, "name_en": "Bucharest"}, {"name": "\u06a9\u0646\u062f\u0647\u0627\u0631", "lat": 31.6257718, "long": 65.7144771, "population": 450300, "name_en": "Kandahar"}, {"name": "\u0410\u0442\u044b\u0440\u0430\u0443", "lat": 47.105003, "long": 51.923595, "population": 167902, "name_en": "Atyrau"}, {"name": "T\u00fcrkmenba\u015fy", "lat": 40.0053169, "long": 52.9928838, "population": 73803, "name_en": "Turkmenbashy"}, {"name": "\u062f\u0647\u06c6\u06a9\u200e / \u062f\u0647\u0648\u0643", "lat": 36.8550508, "long": 42.9927771, "population": 226899, "name_en": "Dahuk"}, {"name": "\u0648\u0627\u062f\u064a \u062d\u0644\u0641\u0627", "lat": 21.8005, "long": 31.350737, "population": 15725, "name_en": "Wadi Halfa"}, {"name": "Gala\u021bi", "lat": 45.4338215, "long": 28.0549395, "population": 249432, "name_en": null}, {"name": "\u041d\u0438\u0448", "lat": 43.321504, "long": 21.8957301, "population": 202208, "name_en": "Nis"}, {"name": "\u042d\u043d\u0433\u0435\u043b\u044c\u0441", "lat": 51.5013775, "long": 46.1233093, "population": 221847, "name_en": "Engels"}, {"name": "\u0423\u0436\u0433\u043e\u0440\u043e\u0434", "lat": 48.6223502, "long": 22.3021255, "population": 114867, "name_en": "Uzhhorod"}, {"name": "\u041a\u0438\u0440\u043e\u0432", "lat": 58.6035257, "long": 49.6639029, "population": 496986, "name_en": "Kirov"}, {"name": "T\u00e2rgovi\u0219te", "lat": 44.9267709, "long": 25.462816, "population": 79610, "name_en": null}, {"name": "\u041d\u043e\u0432\u043e\u043f\u043e\u043b\u043e\u0446\u043a", "lat": 55.5347704, "long": 28.645089, "population": 108193, "name_en": "Navapolatsk"}, {"name": "\u041f\u043e\u043b\u043e\u0446\u043a", "lat": 55.4854656, "long": 28.7682339, "population": 84593, "name_en": "Polatsk"}, {"name": "Podgorica", "lat": 42.4415238, "long": 19.2621081, "population": 169132, "name_en": "Podgorica"}, {"name": "Lleida", "lat": 41.6147605, "long": 0.6267842, "population": 138416, "name_en": null}, {"name": "\u03a1\u03cc\u03b4\u03bf\u03c2", "lat": 36.4379874, "long": 28.2233083, "population": 54000, "name_en": "Rhodes"}, {"name": "Drobeta-Turnu Severin", "lat": 44.6301908, "long": 22.659342, "population": 92617, "name_en": null}, {"name": "Pite\u0219ti", "lat": 44.8572343, "long": 24.8719422, "population": 155383, "name_en": null}, {"name": "Opole", "lat": 50.6668184, "long": 17.9236408, "population": 120146, "name_en": null}, {"name": "Baia Mare", "lat": 47.6565584, "long": 23.5719843, "population": 123738, "name_en": null}, {"name": "Suceava", "lat": 47.647001, "long": 26.2522599, "population": 92121, "name_en": null}, {"name": "Bistri\u021ba", "lat": 47.1327012, "long": 24.4963949, "population": 75076, "name_en": null}, {"name": "Sf\u00e2ntu Gheorghe", "lat": 45.8617282, "long": 25.7893959, "population": 56006, "name_en": null}, {"name": "Tulcea", "lat": 45.1779295, "long": 28.8018918, "population": 73707, "name_en": null}, {"name": "Ir-Rabat", "lat": 36.0428907, "long": 14.2398479, "population": 6901, "name_en": "Victoria"}, {"name": "Ia\u0219i", "lat": 47.161494, "long": 27.5840504, "population": 290422, "name_en": null}, {"name": "Chi\u0219in\u0103u", "lat": 47.0122737, "long": 28.8605936, "population": 750000, "name_en": null}, {"name": "Salzgitter", "lat": 52.1503721, "long": 10.3593147, "population": 98197, "name_en": null}, {"name": "\u0533\u0575\u0578\u0582\u0574\u0580\u056b", "lat": 40.7851497, "long": 43.8429968, "population": 146000, "name_en": "Gyumri"}, {"name": "\u0535\u0580\u0587\u0561\u0576", "lat": 40.1776121, "long": 44.5125849, "population": 1129300, "name_en": "Yerevan"}, {"name": "\u039a\u03bf\u03b6\u03ac\u03bd\u03b7", "lat": 40.3007259, "long": 21.7883119, "population": 35242, "name_en": "Kozani"}, {"name": "\u0388\u03b4\u03b5\u03c3\u03c3\u03b1", "lat": 40.8045116, "long": 22.0499596, "population": 18253, "name_en": "Edessa"}, {"name": "\u039d\u03ac\u03bf\u03c5\u03c3\u03b1", "lat": 40.6306515, "long": 22.0698076, "population": 19870, "name_en": "Naoussa"}, {"name": "\u0393\u03b9\u03b1\u03bd\u03bd\u03b9\u03c4\u03c3\u03ac", "lat": 40.7929486, "long": 22.4140358, "population": 26296, "name_en": "Giannitsa"}, {"name": "\u03a6\u03bb\u03ce\u03c1\u03b9\u03bd\u03b1", "lat": 40.7828829, "long": 21.4145565, "population": 14297, "name_en": "Florina"}, {"name": "\u0627\u0644\u0642\u0627\u0645\u0634\u0644\u064a", "lat": 37.0344977, "long": 41.222262, "population": 232258, "name_en": "AlQamishly"}, {"name": "\u03a4\u03c1\u03af\u03ba\u03b1\u03bb\u03b1", "lat": 39.5560869, "long": 21.7678844, "population": 62154, "name_en": "Trikala"}, {"name": "\u039a\u03b1\u03c1\u03b4\u03af\u03c4\u03c3\u03b1", "lat": 39.3634604, "long": 21.9211192, "population": 32031, "name_en": "Karditsa"}, {"name": "Boto\u0219ani", "lat": 47.7450706, "long": 26.6599858, "population": 106847, "name_en": null}, {"name": "Urziceni", "lat": 44.717002, "long": 26.6324066, "population": 19303, "name_en": null}, {"name": "Piatra Neam\u021b", "lat": 46.9319894, "long": 26.3695046, "population": 85055, "name_en": null}, {"name": "\u039a\u03b9\u03bb\u03ba\u03af\u03c2", "lat": 40.9935874, "long": 22.8741455, "population": 17430, "name_en": "Kilkis"}, {"name": "\u039c\u03b5\u03c3\u03bf\u03bb\u03cc\u03b3\u03b3\u03b9", "lat": 38.3686353, "long": 21.4283544, "population": 20000, "name_en": "Mesolongi"}, {"name": "\u0392\u03cc\u03bb\u03bf\u03c2", "lat": 39.3624382, "long": 22.9418905, "population": 82439, "name_en": "Volos"}, {"name": "\u039a\u03b1\u03c3\u03c4\u03bf\u03c1\u03b9\u03ac", "lat": 40.5171556, "long": 21.2688435, "population": 13387, "name_en": "Kastoria"}, {"name": "\u03a3\u03ad\u03c1\u03c1\u03b5\u03c2", "lat": 41.0910711, "long": 23.5498031, "population": 56000, "name_en": "Serres"}, {"name": "\u039a\u03b1\u03b2\u03ac\u03bb\u03b1", "lat": 40.93689, "long": 24.4122659, "population": 54027, "name_en": "Kavala"}, {"name": "\u039e\u03ac\u03bd\u03b8\u03b7", "lat": 41.1380289, "long": 24.8862688, "population": 52000, "name_en": "Xanthi"}, {"name": "\u039a\u03bf\u03bc\u03bf\u03c4\u03b7\u03bd\u03ae", "lat": 41.117833, "long": 25.4041307, "population": 53000, "name_en": "Komotini"}, {"name": "Or\u0219ova", "lat": 44.7234689, "long": 22.3982754, "population": 16009, "name_en": null}, {"name": "Y\u00fcksekova", "lat": 37.5717687, "long": 44.2821698, "population": 112826, "name_en": null}, {"name": "T\u00e2rgu Jiu", "lat": 45.0422947, "long": 23.2728118, "population": 82504, "name_en": null}, {"name": "\u0391\u03bb\u03b5\u03be\u03b1\u03bd\u03b4\u03c1\u03bf\u03cd\u03c0\u03bf\u03bb\u03b7", "lat": 40.845692, "long": 25.8753275, "population": 53000, "name_en": "Alexandroupoli"}, {"name": "\u0399\u03c9\u03ac\u03bd\u03bd\u03b9\u03bd\u03b1", "lat": 39.6639818, "long": 20.8522784, "population": 70000, "name_en": "Ioannina"}, {"name": "\u03a0\u03c1\u03ad\u03b2\u03b5\u03b6\u03b1", "lat": 38.9589956, "long": 20.7496704, "population": 19072, "name_en": "Preveza"}, {"name": "R\u00e2mnicu V\u00e2lcea", "lat": 45.1031674, "long": 24.3646431, "population": 98776, "name_en": null}, {"name": "Alexandria", "lat": 43.9702236, "long": 25.3288462, "population": 45434, "name_en": null}, {"name": "\u05e0\u05d4\u05e8\u05d9\u05d4", "lat": 33.0062768, "long": 35.0946357, "population": null, "name_en": "Nahariyya"}, {"name": "C\u0103l\u0103ra\u0219i", "lat": 44.1961646, "long": 27.3313233, "population": 65181, "name_en": "Calarasi"}, {"name": "\u0414\u043e\u043b\u0433\u043e\u043f\u0440\u0443\u0434\u043d\u044b\u0439", "lat": 55.9341491, "long": 37.5142417, "population": 98788, "name_en": "Dolgoprudny"}, {"name": "\u0425\u0438\u043c\u043a\u0438", "lat": 55.8892847, "long": 37.4449896, "population": 232066, "name_en": "Khimki"}, {"name": "Medgidia", "lat": 44.2443001, "long": 28.269625, "population": 45162, "name_en": null}, {"name": "\u0420\u0456\u0432\u043d\u0435", "lat": 50.6196175, "long": 26.2513165, "population": 245323, "name_en": "Rivne"}, {"name": "\u041b\u0443\u0446\u044c\u043a", "lat": 50.7450733, "long": 25.320078, "population": 217502, "name_en": "Lutsk"}, {"name": "Satu Mare", "lat": 47.7945819, "long": 22.8797292, "population": 102411, "name_en": null}, {"name": "\u0420\u044b\u0431\u0438\u043d\u0441\u043a", "lat": 58.050373, "long": 38.834637, "population": 193341, "name_en": "Rybinsk"}, {"name": "\u041a\u043e\u0441\u0442\u0440\u043e\u043c\u0430", "lat": 57.7679158, "long": 40.9269141, "population": 276090, "name_en": "Kostroma"}, {"name": "\u0418\u0432\u0430\u043d\u043e\u0432\u043e", "lat": 56.9984452, "long": 40.9737394, "population": 409285, "name_en": "Ivanovo"}, {"name": "Ab\u00e9ch\u00e9 \u0623\u0628\u0634\u064a", "lat": 13.8280295, "long": 20.8283652, "population": 78191, "name_en": "Ab\u00e9ch\u00e9"}, {"name": "Ati \u0623\u062a\u064a", "lat": 13.2125691, "long": 18.3396857, "population": 35311, "name_en": "Ati"}, {"name": "Prizren", "lat": 42.2109946, "long": 20.7452728, "population": 177781, "name_en": "Prizren"}, {"name": "Barcelona", "lat": 41.3828939, "long": 2.1774322, "population": 1615908, "name_en": null}, {"name": "Tarragona", "lat": 41.1172364, "long": 1.2546057, "population": 134085, "name_en": null}, {"name": "Reus", "lat": 41.1555564, "long": 1.1076133, "population": 104630, "name_en": null}, {"name": "\u03a0\u03b5\u03b9\u03c1\u03b1\u03b9\u03ac\u03c2", "lat": 37.9440078, "long": 23.6483599, "population": 163688, "name_en": "Piraeus"}, {"name": "\u03a4\u03c1\u03af\u03c0\u03bf\u03bb\u03b7", "lat": 37.5102097, "long": 22.37244, "population": 25520, "name_en": "Tripoli"}, {"name": "Ciudad Real", "lat": 38.9854201, "long": -3.9285138, "population": 71005, "name_en": null}, {"name": "Leszno", "lat": 51.8435636, "long": 16.5743712, "population": 64589, "name_en": null}, {"name": "\u0413\u0435\u0432\u0433\u0435\u043b\u0438\u0458\u0430", "lat": 41.1414609, "long": 22.5049278, "population": 20664, "name_en": "Gevgelija"}, {"name": "\u042d\u043b\u0435\u043a\u0442\u0440\u043e\u0441\u0442\u0430\u043b\u044c", "lat": 55.7903785, "long": 38.4405711, "population": 158222, "name_en": "Elektrostal"}, {"name": "\u041d\u043e\u0433\u0438\u043d\u0441\u043a", "lat": 55.8553511, "long": 38.4411898, "population": 102247, "name_en": "Noginsk"}, {"name": "\u10d1\u10d0\u10d7\u10e3\u10db\u10d8", "lat": 41.6509502, "long": 41.6360085, "population": 121800, "name_en": "Batumi"}, {"name": "\u041f\u044f\u0442\u0438\u0433\u043e\u0440\u0441\u043a", "lat": 44.0410835, "long": 43.0666626, "population": 145971, "name_en": "Pyatigorsk"}, {"name": "\u0420\u043e\u0441\u0442\u043e\u0432-\u043d\u0430-\u0414\u043e\u043d\u0443", "lat": 47.2249135, "long": 39.7022756, "population": 1114806, "name_en": "Rostov-on-Don"}, {"name": "\u039a\u03cc\u03c1\u03b9\u03bd\u03b8\u03bf\u03c2", "lat": 37.9386936, "long": 22.9280447, "population": 29787, "name_en": "Corinth"}, {"name": "\u03a3\u03c0\u03ac\u03c1\u03c4\u03b7", "lat": 37.0750592, "long": 22.4311234, "population": 19102, "name_en": "Sparta"}, {"name": "\u0394\u03c1\u03ac\u03bc\u03b1", "lat": 41.1500473, "long": 24.1466893, "population": 42501, "name_en": "Drama"}, {"name": "Burgos", "lat": 42.343926, "long": -3.696977, "population": 171784, "name_en": null}, {"name": "\u0421\u043a\u043e\u043f\u0458\u0435", "lat": 41.9960924, "long": 21.4316495, "population": 668500, "name_en": "Skopje"}, {"name": "Bytom", "lat": 50.3470387, "long": 18.9231857, "population": 173439, "name_en": null}, {"name": "Nax\u00e7\u0131van", "lat": 39.2067236, "long": 45.408394, "population": 74100, "name_en": "Nakhchivan"}, {"name": "\u0420\u0443\u0441\u0435", "lat": 43.8480413, "long": 25.9542057, "population": 159798, "name_en": "Ruse"}, {"name": "\u041a\u0443\u0440\u0433\u0430\u043d", "lat": 55.45435, "long": 65.321877, "population": 326292, "name_en": "Kurgan"}, {"name": "Lugo", "lat": 43.0118437, "long": -7.5565749, "population": 98457, "name_en": null}, {"name": "\u067e\u06cc\u0631\u0627\u0646\u0634\u0647\u0631", "lat": 36.6987649, "long": 45.1400931, "population": 123639, "name_en": "Piranshahr"}, {"name": "\u10e4\u10dd\u10d7\u10d8", "lat": 42.141614, "long": 41.6748028, "population": 47500, "name_en": "Poti"}, {"name": "\u015e\u0259mkir", "lat": 40.8272365, "long": 46.0213055, "population": 67700, "name_en": "Shamkor"}, {"name": "G\u0259nc\u0259", "lat": 40.6794747, "long": 46.3564509, "population": 313300, "name_en": "Ganja"}, {"name": "Zalaegerszeg", "lat": 46.8420036, "long": 16.846214, "population": 58829, "name_en": null}, {"name": "Tovuz", "lat": 40.9963736, "long": 45.6189277, "population": 13000, "name_en": null}, {"name": "\u10e0\u10e3\u10e1\u10d7\u10d0\u10d5\u10d8", "lat": 41.5501281, "long": 44.9923478, "population": 116400, "name_en": "Rustavi"}, {"name": "\u041b\u0435\u0441\u043a\u043e\u0432\u0430\u0446", "lat": 42.9962574, "long": 21.9480858, "population": 78030, "name_en": "Leskovac"}, {"name": "\u0421\u0442\u0440\u0443\u043c\u0438\u0446\u0430", "lat": 41.4392045, "long": 22.6397203, "population": 36000, "name_en": "Strumica"}, {"name": "\u0427\u0435\u0440\u0435\u043f\u043e\u0432\u0435\u0446", "lat": 59.128696, "long": 37.916389, "population": 318107, "name_en": "Cherepovets"}, {"name": "Sosnowiec", "lat": 50.2806917, "long": 19.1349298, "population": 211275, "name_en": null}, {"name": "\u0427\u0435\u0440\u043a\u0435\u0441\u0441\u043a", "lat": 44.2250248, "long": 42.056765, "population": 123128, "name_en": "Cherkessk"}, {"name": "\u0419\u043e\u0448\u043a\u0430\u0440-\u041e\u043b\u0430", "lat": 56.6327144, "long": 47.8953961, "population": 263190, "name_en": "Yoshkar-Ola"}, {"name": "\u041c\u0430\u0439\u043a\u043e\u043f", "lat": 44.6062079, "long": 40.104053, "population": 144055, "name_en": "Maykop"}, {"name": "\u041c\u0430\u0445\u0430\u0447\u043a\u0430\u043b\u0430", "lat": 42.97554, "long": 47.49612, "population": 587876, "name_en": "Makhachkala"}, {"name": "\u042d\u043b\u0438\u0441\u0442\u0430", "lat": 46.306999, "long": 44.270187, "population": 104005, "name_en": "Elista"}, {"name": "\u0421\u044b\u043a\u0442\u044b\u0432\u043a\u0430\u0440", "lat": 61.6689734, "long": 50.834958, "population": 243536, "name_en": "Syktyvkar"}, {"name": "\u0421\u0430\u0440\u0430\u043d\u0441\u043a", "lat": 54.18671, "long": 45.18383, "population": 302285, "name_en": "Saransk"}, {"name": "J\u00f6nk\u00f6ping", "lat": 57.7814709, "long": 14.1627579, "population": 84423, "name_en": null}, {"name": "\u0410\u0441\u0442\u0440\u0430\u0445\u0430\u043d\u044c", "lat": 46.349854, "long": 48.031567, "population": 532699, "name_en": "Astrakhan"}, {"name": "\u0412\u043b\u0430\u0434\u0438\u043c\u0438\u0440", "lat": 56.1288899, "long": 40.4075203, "population": 352681, "name_en": "Vladimir"}, {"name": "\u0422\u0430\u043c\u0431\u043e\u0432", "lat": 52.72879, "long": 41.45536, "population": 288895, "name_en": "Tambov"}, {"name": "\u041d\u0430\u0431\u0435\u0440\u0435\u0436\u043d\u044b\u0435 \u0427\u0435\u043b\u043d\u044b", "lat": 55.7420117, "long": 52.3992173, "population": 524444, "name_en": "Naberezhnye Chelny"}, {"name": "\u0412\u043e\u043b\u0436\u0441\u043a\u0438\u0439", "lat": 48.782102, "long": 44.7779843, "population": 326602, "name_en": "Volzhskiy"}, {"name": "\u0421\u0442\u0435\u0440\u043b\u0438\u0442\u0430\u043c\u0430\u043a", "lat": 53.632374, "long": 55.952259, "population": 279692, "name_en": "Sterlitamak"}, {"name": "\u0414\u0437\u0435\u0440\u0436\u0438\u043d\u0441\u043a", "lat": 56.2382157, "long": 43.4617405, "population": 234284, "name_en": "Dzerzhinsk"}, {"name": "\u0428\u0430\u0445\u0442\u044b", "lat": 47.7119167, "long": 40.2115699, "population": 237233, "name_en": "Shakhty"}, {"name": "\u0410\u0440\u043c\u0430\u0432\u0438\u0440", "lat": 44.9986975, "long": 41.1252241, "population": 191568, "name_en": "Armavir"}, {"name": "\u0645\u0639\u0631\u0629 \u0627\u0644\u0646\u0639\u0645\u0627\u0646", "lat": 35.6470788, "long": 36.6777062, "population": null, "name_en": "Maarrat al-Nu'man"}, {"name": "\u0417\u043b\u0430\u0442\u043e\u0443\u0441\u0442", "lat": 55.1674213, "long": 59.6792625, "population": 167978, "name_en": "Zlatoust"}, {"name": "\u041a\u0430\u043c\u0435\u043d\u0441\u043a-\u0423\u0440\u0430\u043b\u044c\u0441\u043a\u0438\u0439", "lat": 56.415451, "long": 61.917797, "population": 170922, "name_en": "Kamensk-Uralsky"}, {"name": "\u041d\u043e\u0432\u043e\u0447\u0435\u0440\u043a\u0430\u0441\u0441\u043a", "lat": 47.41066, "long": 40.101986, "population": 172817, "name_en": "Novocherkassk"}, {"name": "\u041a\u043e\u0440\u043e\u043b\u0451\u0432", "lat": 55.9204898, "long": 37.8326289, "population": 220947, "name_en": "Korolyov"}, {"name": "\u0412\u043e\u043b\u0433\u043e\u0434\u043e\u043d\u0441\u043a", "lat": 47.5128177, "long": 42.1717606, "population": 170230, "name_en": "Volgodonsk"}, {"name": "\u0411\u0435\u0440\u0435\u0437\u043d\u0438\u043a\u0438", "lat": 59.4084171, "long": 56.8036958, "population": 146626, "name_en": "Berezniki"}, {"name": "\u041b\u044e\u0431\u0435\u0440\u0446\u044b", "lat": 55.6783142, "long": 37.89377, "population": 189123, "name_en": "Lyubertsy"}, {"name": "\u041c\u0438\u0430\u0441\u0441", "lat": 55.065304, "long": 60.108337, "population": 151856, "name_en": "Miass"}, {"name": "\u041a\u043e\u0432\u0440\u043e\u0432", "lat": 56.374603, "long": 41.311676, "population": 140117, "name_en": "Kovrov"}, {"name": "\u041a\u043e\u043b\u043e\u043c\u043d\u0430", "lat": 55.0938743, "long": 38.7670121, "population": 144253, "name_en": "Kolomna"}, {"name": "\u041a\u043e\u043f\u0435\u0439\u0441\u043a", "lat": 55.1131951, "long": 61.6216332, "population": 147573, "name_en": "Kopeysk"}, {"name": "\u041f\u0435\u0440\u0432\u043e\u0443\u0440\u0430\u043b\u044c\u0441\u043a", "lat": 56.904858, "long": 59.943119, "population": 125495, "name_en": "Pervouralsk"}, {"name": "\u041e\u0434\u0438\u043d\u0446\u043e\u0432\u043e", "lat": 55.6711507, "long": 37.2727963, "population": 141429, "name_en": "Odintsovo"}, {"name": "\u041d\u0435\u0432\u0438\u043d\u043d\u043e\u043c\u044b\u0441\u0441\u043a", "lat": 44.6333559, "long": 41.9408684, "population": 117868, "name_en": "Nevinnomyssk"}, {"name": "\u041a\u0438\u0441\u043b\u043e\u0432\u043e\u0434\u0441\u043a", "lat": 43.9143583, "long": 42.7237033, "population": 130007, "name_en": "Kislovodsk"}, {"name": "\u0414\u0438\u043c\u0438\u0442\u0440\u043e\u0432\u0433\u0440\u0430\u0434", "lat": 54.2188995, "long": 49.6038982, "population": null, "name_en": "Dimitrovgrad"}, {"name": "\u041d\u043e\u0432\u043e\u0447\u0435\u0431\u043e\u043a\u0441\u0430\u0440\u0441\u043a", "lat": 56.1140023, "long": 47.4870341, "population": 124869, "name_en": "Novocheboksarsk"}, {"name": "\u0421\u0435\u0440\u043f\u0443\u0445\u043e\u0432", "lat": 54.9155247, "long": 37.4195533, "population": 126728, "name_en": "Serpukhov"}, {"name": "\u0425\u0430\u0441\u0430\u0432\u044e\u0440\u0442", "lat": 43.242744, "long": 46.580849, "population": 138420, "name_en": "Khasavyurt"}, {"name": "\u041a\u0430\u043c\u044b\u0448\u0438\u043d", "lat": 50.0808422, "long": 45.4048003, "population": 113402, "name_en": "Kamyshin"}, {"name": "\u041c\u0443\u0440\u043e\u043c", "lat": 55.5738, "long": 42.0447, "population": 110746, "name_en": "Murom"}, {"name": "\u041e\u0440\u0435\u0445\u043e\u0432\u043e-\u0417\u0443\u0435\u0432\u043e", "lat": 55.8083278, "long": 38.9790038, "population": 120184, "name_en": "Orekhovo-Zuevo"}, {"name": "\u041d\u0435\u0444\u0442\u0435\u043a\u0430\u043c\u0441\u043a", "lat": 56.09923, "long": 54.2615113, "population": 125915, "name_en": "Neftekamsk"}, {"name": "\u041d\u043e\u0432\u043e\u0448\u0430\u0445\u0442\u0438\u043d\u0441\u043a", "lat": 47.7558886, "long": 39.935987, "population": 109139, "name_en": "Novoshakhtinsk"}, {"name": "\u0415\u043b\u0435\u0446", "lat": 52.613815, "long": 38.488453, "population": 105989, "name_en": "Yelets"}, {"name": "\u0421\u0435\u0440\u0433\u0438\u0435\u0432 \u041f\u043e\u0441\u0430\u0434", "lat": 56.3089497, "long": 38.1360855, "population": 106007, "name_en": "Sergiyev Posad"}, {"name": "\u041d\u043e\u0432\u043e\u043a\u0443\u0439\u0431\u044b\u0448\u0435\u0432\u0441\u043a", "lat": 53.099243, "long": 49.948364, "population": 105007, "name_en": "Novokuybyshevsk"}, {"name": "\u0410\u0440\u0437\u0430\u043c\u0430\u0441", "lat": 55.3989463, "long": 43.8408129, "population": 104831, "name_en": "Arzamas"}, {"name": "\u0414\u0435\u0440\u0431\u0435\u043d\u0442", "lat": 42.0576987, "long": 48.2938068, "population": 122354, "name_en": "Derbent"}, {"name": "\u0416\u0443\u043a\u043e\u0432\u0441\u043a\u0438\u0439", "lat": 55.5972801, "long": 38.1199863, "population": 107815, "name_en": "Zhukovsky"}, {"name": "\u0422\u043e\u0431\u043e\u043b\u044c\u0441\u043a", "lat": 58.201286, "long": 68.250595, "population": 98886, "name_en": "Tobolsk"}, {"name": "\u0627\u0644\u0644\u0627\u0630\u0642\u064a\u0629", "lat": 35.5200185, "long": 35.7781044, "population": 700000, "name_en": "Latakia"}, {"name": "\u0637\u0631\u0637\u0648\u0633", "lat": 34.8936225, "long": 35.8851671, "population": 97557, "name_en": "Tartus"}, {"name": "\u0627\u0644\u0641\u0644\u0648\u062c\u0629", "lat": 33.3532137, "long": 43.7875674, "population": 326471, "name_en": "Fallujah"}, {"name": "\u039a\u03b1\u03bb\u03b1\u03bc\u03ac\u03c4\u03b1", "lat": 37.0377582, "long": 22.1109392, "population": 69849, "name_en": "Kalamata"}, {"name": "\u03a0\u03cd\u03c1\u03b3\u03bf\u03c2", "lat": 37.6711849, "long": 21.4422805, "population": 34902, "name_en": null}, {"name": "\u0411\u043e\u0431\u0440\u0443\u0439\u0441\u043a", "lat": 53.1449683, "long": 29.2281209, "population": 216522, "name_en": "Babruysk"}, {"name": "\u0416\u043b\u043e\u0431\u0438\u043d", "lat": 52.8909861, "long": 30.0383045, "population": 80200, "name_en": "Zhlobin"}, {"name": "\u05d0\u05e9\u05d3\u05d5\u05d3", "lat": 31.7977307, "long": 34.652994, "population": 204000, "name_en": "Ashdod"}, {"name": "\u05e8\u05d0\u05e9\u05d5\u05df \u05dc\u05e6\u05d9\u05d5\u05df", "lat": 31.9635712, "long": 34.8101149, "population": 244000, "name_en": "Rishon LeZion"}, {"name": "Elche / Elx", "lat": 38.2653181, "long": -0.6988488, "population": 191079, "name_en": null}, {"name": "\u0627\u0644\u0647\u0641\u0648\u0641", "lat": 25.3726249, "long": 49.586973, "population": 1200000, "name_en": "Hofuf"}, {"name": "\u053b\u057b\u0587\u0561\u0576", "lat": 40.8816528, "long": 45.1459, "population": 20500, "name_en": "Ijevan"}, {"name": "\u054e\u0561\u0576\u0561\u0571\u0578\u0580", "lat": 40.8111917, "long": 44.4851995, "population": 104800, "name_en": "Vanadzor"}, {"name": "Alcal\u00e1 de Henares", "lat": 40.4818396, "long": -3.3644973, "population": 200537, "name_en": null}, {"name": "\u053e\u0561\u0572\u056f\u0561\u200e\u0571\u0578\u0580", "lat": 40.5316817, "long": 44.7234798, "population": 1620, "name_en": "Tsakhkadzor"}, {"name": "\u054e\u0561\u0580\u0564\u0565\u0576\u056b\u057d", "lat": 40.1823425, "long": 45.7297281, "population": 12700, "name_en": "Vardenis"}, {"name": "Isparta", "lat": 37.77035, "long": 30.5556933, "population": 427324, "name_en": "Isparta"}, {"name": "\u0422\u0443\u0440\u043a\u0435\u0441\u0442\u0430\u043d", "lat": 43.298692, "long": 68.26296, "population": 148554, "name_en": "Turkestan"}, {"name": "Apeldoorn", "lat": 52.2156457, "long": 5.9639485, "population": 155000, "name_en": null}, {"name": "\u10e5\u10e3\u10d7\u10d0\u10d8\u10e1\u10d8", "lat": 42.271584, "long": 42.705359, "population": 186000, "name_en": "Kutaisi"}, {"name": "\u10d7\u10d4\u10da\u10d0\u10d5\u10d8", "lat": 41.918292, "long": 45.4746493, "population": 19629, "name_en": "Telavi"}, {"name": "\u10d2\u10dd\u10e0\u10d8", "lat": 41.9874329, "long": 44.1089577, "population": 46680, "name_en": "Gori"}, {"name": "\u0635\u0644\u0627\u0644\u0629", "lat": 17.0149036, "long": 54.0956972, "population": 178469, "name_en": "Salalah"}, {"name": "\u0645\u0633\u0642\u0637", "lat": 23.5997857, "long": 58.5451305, "population": 1090797, "name_en": "Muscat"}, {"name": "Ming\u0259\u00e7evir", "lat": 40.7653175, "long": 47.0512947, "population": 99775, "name_en": "Mingachevir"}, {"name": "\u015e\u0259ki", "lat": 41.1999786, "long": 47.1796374, "population": 63700, "name_en": "Sheki"}, {"name": "B\u0259rd\u0259", "lat": 40.3817043, "long": 47.1220288, "population": 38500, "name_en": null}, {"name": "Sabirabad", "lat": 40.008006, "long": 48.475032, "population": 29000, "name_en": "Sabirabad"}, {"name": "Torrej\u00f3n de Ardoz", "lat": 40.4587767, "long": -3.4793343, "population": 117407, "name_en": null}, {"name": "Neft\u00e7ala", "lat": 39.3790532, "long": 49.248607, "population": 20900, "name_en": null}, {"name": "Bil\u0259suvar", "lat": 39.4561281, "long": 48.5465607, "population": 20900, "name_en": null}, {"name": "C\u0259lilabad", "lat": 39.2098898, "long": 48.4971144, "population": 43300, "name_en": null}, {"name": "Yard\u0131ml\u0131", "lat": 38.9074487, "long": 48.2423036, "population": 6800, "name_en": null}, {"name": "L\u0259nk\u0259ran", "lat": 38.753614, "long": 48.8522334, "population": 83300, "name_en": "Lankaran"}, {"name": "\u0130mi\u015fli", "lat": 39.8694587, "long": 48.0659223, "population": 33300, "name_en": null}, {"name": "Castell\u00f3n de la Plana / Castell\u00f3 de la Plana", "lat": 39.9859953, "long": -0.0374353, "population": 180690, "name_en": "Castell\u00f3n de la Plana"}, {"name": "\u06a9\u0631\u062c", "lat": 35.8121955, "long": 51.0073853, "population": 1712000, "name_en": "Karaj"}, {"name": "Leeuwarden", "lat": 53.2005936, "long": 5.7918548, "population": 107858, "name_en": null}, {"name": "Den Haag", "lat": 52.0799838, "long": 4.3113461, "population": 515076, "name_en": "The Hague"}, {"name": "Utrecht", "lat": 52.0949753, "long": 5.109708, "population": 335089, "name_en": null}, {"name": "Leiden", "lat": 52.1598645, "long": 4.4824271, "population": 150000, "name_en": null}, {"name": "Dordrecht", "lat": 51.7958812, "long": 4.6779351, "population": 118000, "name_en": "Dordrecht"}, {"name": "Zwolle", "lat": 52.5089759, "long": 6.0943765, "population": 120000, "name_en": null}, {"name": "\u0627\u0644\u0632\u0628\u064a\u0631", "lat": 30.3917664, "long": 47.7027042, "population": null, "name_en": "Al Zubayr"}, {"name": "Z\u00fcrich", "lat": 47.3723957, "long": 8.5423216, "population": 396027, "name_en": "Zurich"}, {"name": "Bottrop", "lat": 51.521581, "long": 6.929204, "population": 116055, "name_en": null}, {"name": "Wiesbaden", "lat": 50.0833, "long": 8.25, "population": 273871, "name_en": null}, {"name": "Bielefeld", "lat": 52.010877, "long": 8.540868, "population": 328864, "name_en": null}, {"name": "Erfurt", "lat": 50.9777974, "long": 11.0287364, "population": 202880, "name_en": null}, {"name": "Aachen", "lat": 50.776351, "long": 6.083862, "population": 241683, "name_en": null}, {"name": "Pforzheim", "lat": 48.8908846, "long": 8.7029532, "population": 117754, "name_en": null}, {"name": "Krefeld", "lat": 51.3331205, "long": 6.5623343, "population": 222058, "name_en": null}, {"name": "Gelsenkirchen", "lat": 51.5109791, "long": 7.0959263, "population": 257850, "name_en": null}, {"name": "Duisburg", "lat": 51.434999, "long": 6.759562, "population": 486855, "name_en": null}, {"name": "Osnabr\u00fcck", "lat": 52.266837, "long": 8.049741, "population": 164489, "name_en": null}, {"name": "Heidelberg", "lat": 49.4093582, "long": 8.694724, "population": 152113, "name_en": "Heidelberg"}, {"name": "Mannheim", "lat": 49.489591, "long": 8.467236, "population": 307640, "name_en": "Mannheim"}, {"name": "M\u00f6nchengladbach", "lat": 51.1946983, "long": 6.4353641, "population": 255430, "name_en": null}, {"name": "Remscheid", "lat": 51.1798706, "long": 7.1943544, "population": 116827, "name_en": null}, {"name": "Offenbach am Main", "lat": 50.088766, "long": 8.766286, "population": 119203, "name_en": null}, {"name": "Solingen", "lat": 51.1712468, "long": 7.0838996, "population": 164205, "name_en": null}, {"name": "Darmstadt", "lat": 49.872775, "long": 8.651177, "population": 154002, "name_en": null}, {"name": "Dresden", "lat": 51.0493286, "long": 13.7381437, "population": 538678, "name_en": null}, {"name": "Jena", "lat": 50.9281717, "long": 11.5879359, "population": 107679, "name_en": null}, {"name": "Wuppertal", "lat": 51.264018, "long": 7.1780374, "population": 361077, "name_en": null}, {"name": "Freiburg im Breisgau", "lat": 47.9960901, "long": 7.8494005, "population": 220286, "name_en": "Freiburg im Breisgau"}, {"name": "Kaiserslautern", "lat": 49.4432174, "long": 7.7689951, "population": 97162, "name_en": null}, {"name": "Bochum", "lat": 51.4818111, "long": 7.2196635, "population": 371075, "name_en": null}, {"name": "Koblenz", "lat": 50.3533278, "long": 7.5943951, "population": 110643, "name_en": null}, {"name": "Berlin", "lat": 52.5170365, "long": 13.3888599, "population": 3531201, "name_en": "Berlin"}, {"name": "Hagen", "lat": 51.3582945, "long": 7.473296, "population": 186000, "name_en": null}, {"name": "Paderborn", "lat": 51.7177044, "long": 8.752653, "population": 143659, "name_en": "Paderborn"}, {"name": "Mainz", "lat": 49.9999952, "long": 8.2710237, "population": 192208, "name_en": "Mainz"}, {"name": "Karlsruhe", "lat": 49.014068, "long": 8.404437, "population": 283959, "name_en": "Karlsruhe"}, {"name": "Regensburg", "lat": 49.0195333, "long": 12.0974869, "population": 145000, "name_en": null}, {"name": "Ludwigshafen am Rhein", "lat": 49.479236, "long": 8.439117, "population": 163340, "name_en": null}, {"name": "D\u00fcsseldorf", "lat": 51.2254018, "long": 6.7763137, "population": 598686, "name_en": null}, {"name": "C\u00e1ceres", "lat": 39.4745175, "long": -6.3716761, "population": 95814, "name_en": null}, {"name": "Cuenca", "lat": 40.0681156, "long": -2.1348241, "population": 52980, "name_en": null}, {"name": "C\u00e1diz", "lat": 36.5298292, "long": -6.2925679, "population": 125826, "name_en": null}, {"name": "Almer\u00eda", "lat": 36.8414197, "long": -2.4628135, "population": 194515, "name_en": "Almeria"},